id,city,region,country_name,latitude,longitude,Genealogical researcher,GLAM professional,Government employee,Legal researcher,Member of the general public,Post-secondary researcher,Student,Teacher,Other Identification,Computer Science,Digital Humanities,Education,Environment/Climate,Gender Studies,Genealogy,Geography,Health,History,Indigenous Land Claims,Indigenous Studies,Information Science,Law,Linguistics,Literature,Political Science,Other Interest
118550735180,Southfield,Michigan,US,42.4734,-83.2219,0,0,0,0,1,0,0,0,,0,0,0,0,0,1,0,0,0,0,0,0,0,0,0,0,
118550705817,Toronto,Ontario,CA,43.7064,-79.3986,0,0,0,0,0,0,0,0,heritage consultant,0,0,0,0,0,0,0,0,1,0,0,0,0,0,0,0,
118550702337,Charlottetown,Prince Edward Island,CA,46.2346,-63.1256,0,0,0,0,0,0,0,0,retired,0,0,1,0,0,0,0,0,0,0,0,0,0,0,0,0,
118550702230,Toronto,Ontario,CA,43.7064,-79.3986,0,0,0,0,0,0,1,0,,0,0,0,0,0,0,0,0,1,0,0,0,0,0,0,0,
118550695187,Toronto,Ontario,CA,43.7064,-79.3986,0,0,0,0,0,0,1,0,,0,0,0,0,0,0,0,0,0,0,0,0,0,0,0,0,
118550693648,Burlington,Ontario,CA,43.3862,-79.8371,1,0,0,0,0,0,0,0,,0,0,0,0,0,1,0,0,1,0,0,0,0,0,0,1,
118550686654,Madison,Wisconsin,US,43.0731,-89.4012,0,0,0,0,0,0,1,0,,0,0,0,0,0,0,0,0,1,0,0,0,0,0,0,0,
118550680960,Toronto,Ontario,CA,43.7064,-79.3986,0,0,0,0,1,0,0,0,,0,0,0,0,0,1,0,0,0,0,0,0,0,0,0,0,
118550669924,Fredericton,New Brunswick,CA,45.9454,-66.6656,0,0,0,0,0,0,1,0,,0,0,1,0,0,0,0,0,0,0,0,0,0,0,0,0,
118550661747,Dublin,Leinster,IE,53.3331,-6.2489,0,0,0,0,0,0,0,0,academic,0,0,0,0,0,0,0,0,1,0,0,0,0,0,1,0,
118550657956,Regina,Saskatchewan,CA,50.4501,-104.6178,0,0,0,0,0,0,1,0,,0,0,1,0,0,0,0,0,0,0,0,0,0,0,0,0,
118550656633,Madison,Wisconsin,US,43.0731,-89.4012,0,0,0,0,0,0,1,0,,0,1,0,0,0,0,0,0,0,0,0,1,0,0,0,0,
118550644681,Bismarck,North Dakota,US,46.8083,-100.7837,1,0,0,0,0,0,0,0,,0,0,0,0,0,1,0,0,0,0,0,0,0,0,0,0,
118550644657,Kitchener,Ontario,CA,43.4646,-80.4467,0,0,0,1,0,0,0,0,,0,0,0,0,0,0,0,0,0,0,0,0,0,0,0,0,land surveying
118550641826,Toronto,Ontario,CA,43.7064,-79.3986,0,0,0,0,0,0,1,0,,0,0,0,0,0,0,0,0,0,0,0,0,0,0,0,0,
118550641172,Greenwood,Nova Scotia,CA,44.9741,-64.9317,0,0,1,0,0,0,0,0,,0,0,0,0,0,0,0,0,1,0,0,0,1,0,0,0,
118550640883,Laval,Quebec,CA,45.5699,-73.692,0,0,0,0,0,0,1,0,,0,0,0,1,0,0,0,0,1,0,0,0,0,0,0,0,
118550639062,Williams Lake,British Columbia,CA,52.1415,-122.1445,0,0,0,0,1,0,0,0,,0,0,0,1,0,1,0,1,0,0,0,0,0,0,0,0,
118550629854,Toronto,Ontario,CA,43.7064,-79.3986,0,0,0,0,1,0,0,0,,0,0,0,0,0,0,0,0,1,0,0,0,0,0,0,0,
118550625926,Hamilton,Ontario,CA,43.2501,-79.8496,0,0,0,0,1,0,0,0,,0,0,0,0,0,0,1,0,1,0,0,0,0,0,0,0,
118550622525,Toronto,Ontario,CA,43.7064,-79.3986,0,0,0,0,0,0,1,0,i’m 17 years old,0,0,1,0,0,0,0,1,0,0,0,0,0,0,0,0,
118550621690,Toronto,Ontario,CA,43.7064,-79.3986,0,0,0,0,0,0,1,0,,0,0,0,0,0,0,0,0,0,0,0,0,1,0,1,0,
118550620475,Toronto,Ontario,CA,43.7064,-79.3986,0,0,0,0,0,0,1,0,,0,0,0,0,0,0,0,0,0,0,0,0,0,0,0,0,
118550608348,Waukegan,Illinois,US,42.3542,-87.8651,1,0,0,0,0,0,0,0,,0,0,0,0,0,1,0,0,1,0,0,0,0,0,0,0,
118550606143,Prince George,British Columbia,CA,53.9166,-122.753,0,0,0,0,0,1,0,0,,0,0,0,0,1,0,0,0,1,0,0,0,0,0,0,0,
118550601098,Montréal,Quebec,CA,45.5088,-73.5878,0,0,0,0,0,0,1,0,,0,0,0,0,0,0,0,0,0,0,0,0,0,0,0,0,
118550595686,Pickering,Ontario,CA,43.9001,-79.1329,1,0,0,0,1,0,0,0,,0,0,0,0,0,1,0,0,1,0,0,0,0,0,0,0,
118550589278,Regina,Saskatchewan,CA,50.4501,-104.6178,0,0,0,0,0,0,1,0,,0,0,0,0,0,0,0,0,1,0,0,0,0,0,0,0,
118550584860,Kamloops,British Columbia,CA,50.6665,-120.3192,1,0,0,0,0,0,0,0,,0,0,0,0,0,1,0,0,1,0,0,0,0,0,0,1,
118550579944,Sarnia,Ontario,CA,42.9787,-82.4041,1,0,0,0,0,0,0,0,,0,0,0,0,0,1,0,0,1,0,0,0,0,0,0,0,
118550573146,Rochester,New York,US,43.1548,-77.6156,1,0,0,0,1,0,0,0,,0,0,0,0,0,1,0,0,1,0,0,0,0,0,0,0,
118550565469,Halifax,Nova Scotia,CA,44.6427,-63.5769,0,0,0,0,0,0,0,1,,0,0,0,0,0,0,0,0,0,0,1,0,0,0,0,0,
118550563998,Victoria,British Columbia,CA,48.4359,-123.3516,0,0,0,0,0,0,1,0,,0,0,1,0,0,0,0,0,0,0,0,0,0,0,0,0,
118550551200,Ottawa,Ontario,CA,45.4112,-75.6981,0,0,1,0,0,0,0,0,,0,0,0,0,0,0,0,0,0,0,0,1,0,0,0,0,
118550544742,Newmarket,Ontario,CA,44.0501,-79.4663,0,0,0,0,0,0,1,0,,0,0,0,0,1,0,0,0,1,1,1,0,0,0,0,0,
118550506194,Bend,Oregon,US,44.0582,-121.3153,1,0,0,0,0,0,0,0,,0,0,0,0,0,1,0,0,0,0,0,0,0,0,0,0,
118550500020,Calgary,Alberta,CA,51.1626,-113.9537,0,0,0,0,0,1,0,0,,0,0,0,0,0,0,0,0,1,0,0,0,0,0,0,0,
118550493700,Toronto,Ontario,CA,43.7064,-79.3986,1,0,0,0,0,0,0,0,,0,0,0,0,0,1,0,0,1,0,0,0,1,0,0,0,
118550469569,London,Ontario,CA,42.9834,-81.233,0,0,0,0,1,0,0,0,,0,0,0,0,0,0,0,0,1,0,0,0,0,0,0,0,
118550438973,Cairo,Cairo,EG,30.0626,31.2497,0,0,0,0,0,0,1,0,,0,0,0,0,0,0,0,0,0,0,0,0,0,0,0,0,
118550381412,Burlington,Ontario,CA,43.3862,-79.8371,1,0,0,0,0,0,0,0,,0,0,0,0,0,0,0,0,0,0,0,0,0,0,0,0,
118550380996,Sarnia,Ontario,CA,42.9787,-82.4041,0,0,0,0,1,1,0,0,,0,0,0,0,0,1,0,0,1,0,0,0,0,0,0,0,
118550375226,Markham,Ontario,CA,43.8668,-79.2663,0,0,0,0,0,0,0,0,rcmp vet,0,0,1,0,0,0,0,0,1,0,0,1,1,0,1,0,
118550370618,Lethbridge,Alberta,CA,49.7,-112.8186,1,0,0,0,1,0,0,0,,0,0,0,0,0,1,0,0,0,0,0,0,0,0,0,0,
118550345355,Bern,Bern,CH,46.9481,7.4474,1,0,0,0,0,0,0,0,,0,0,0,0,0,1,0,1,0,0,0,0,0,0,0,0,
118550343792,Winnipeg,Manitoba,CA,49.8844,-97.147,1,0,0,0,0,0,0,0,,0,0,0,0,0,1,0,0,0,0,0,0,0,0,0,0,
118550329748,Prince George,British Columbia,CA,53.9166,-122.753,1,0,0,0,0,0,0,0,,0,0,0,0,0,0,0,0,0,0,0,0,0,0,0,0,
118550329075,Prince George,British Columbia,CA,53.9166,-122.753,1,0,0,0,1,0,0,0,,0,1,0,0,0,1,0,0,1,0,0,0,0,0,0,0,
118550322804,Toronto,Ontario,CA,43.7064,-79.3986,0,0,0,0,0,0,1,0,,0,0,0,0,0,0,0,0,0,0,0,0,0,0,0,0,
118550321194,Toronto,Ontario,CA,43.7064,-79.3986,0,0,0,0,0,0,1,0,,0,0,0,0,0,0,0,0,0,0,0,0,0,0,0,0,
118550279401,South Woodstock,Connecticut,US,41.889,-72.1476,1,0,0,0,0,0,0,0,,0,0,0,0,0,1,0,0,1,0,0,0,0,0,0,0,
118550264938,Minnetonka Mills,Minnesota,US,44.9411,-93.4419,0,0,0,0,0,0,1,0,,0,0,0,0,0,0,0,0,1,1,0,0,0,0,0,0,
118550259318,Turin,Piedmont,IT,45.0705,7.6868,1,0,0,0,0,0,0,0,,0,0,0,0,0,0,0,0,1,0,0,0,0,0,0,0,
118550229778,Leeds,England,GB,53.7965,-1.5478,0,0,0,0,0,0,0,1,,0,0,0,0,0,0,0,0,1,0,0,0,0,0,0,0,
118550203929,London,Ontario,CA,42.9834,-81.233,0,0,0,0,0,0,1,0,,0,0,0,0,0,0,0,0,1,0,0,0,0,0,0,0,
118550138559,Monza,Lombardy,IT,45.58,9.2725,0,0,0,0,0,0,0,1,,0,0,0,0,0,0,0,0,0,0,0,0,0,0,0,0,psychology 
118550136843,Calgary,Alberta,CA,51.0501,-114.0853,0,0,0,0,0,0,1,0,,0,0,1,1,0,0,0,1,1,0,1,0,0,1,0,0,
118550125668,Montréal,Quebec,CA,45.5088,-73.5878,0,0,0,0,1,0,0,0,writer,0,0,0,0,0,1,0,0,1,0,0,0,0,0,0,0,
118550111517,Oshawa,Ontario,CA,43.9001,-78.8496,0,0,0,0,1,0,0,0,,0,0,0,0,0,1,0,0,1,0,1,0,0,0,1,1,
118550106878,Pittsburgh,Pennsylvania,US,40.4406,-79.9959,1,0,0,0,0,0,0,0,,0,0,0,0,0,1,0,0,0,0,0,0,0,0,0,0,
118550087597,Kingston,Ontario,CA,44.2814,-76.6111,0,0,0,0,0,1,0,0,,0,0,0,0,0,0,0,0,1,0,0,0,0,0,0,0,
118550084906,Toronto,Ontario,CA,43.7064,-79.3986,0,0,0,0,1,0,0,0,,0,0,0,0,0,0,0,0,1,0,0,0,0,0,1,0,
118550079441,Toronto,Ontario,CA,43.7064,-79.3986,0,0,0,0,1,0,0,0,,0,0,0,0,0,0,0,0,1,0,0,0,0,0,0,0,
118550078425,Vancouver,British Columbia,CA,49.2497,-123.1193,0,0,0,0,1,0,0,0,,0,0,0,0,0,0,0,0,0,0,0,0,0,0,0,0,
118550077579,Davis,California,US,38.5449,-121.7405,0,0,0,0,0,0,1,0,,0,0,0,0,0,0,0,0,0,0,0,0,0,0,1,0,
118550064558,Bethesda,Maryland,US,38.9807,-77.1003,1,0,0,0,0,0,0,0,,0,0,0,0,0,0,0,0,0,0,0,0,0,0,0,0,
118550044815,Dartmouth,Nova Scotia,CA,44.6713,-63.5772,1,0,0,0,0,0,0,0,,0,0,0,0,0,1,0,0,0,0,0,0,0,0,0,0,
118550035963,Vancouver,British Columbia,CA,49.2819,-123.119,0,0,0,0,1,0,0,0,retired rcmp member. ,0,0,0,0,0,0,0,1,1,0,0,0,1,0,0,0,
118550028103,Toronto,Ontario,CA,43.7064,-79.3986,0,0,0,0,0,0,1,0,,0,0,0,0,0,0,0,0,1,0,0,0,0,0,0,0,
118550024294,Toronto,Ontario,CA,43.7064,-79.3986,0,0,0,0,0,0,1,0,,0,0,0,0,0,0,0,0,1,0,0,0,0,0,0,0,
118550021120,Ottawa,Ontario,CA,45.4112,-75.6981,0,0,0,0,0,0,0,0,graduated history b.a with considerable interest ,0,1,1,0,1,0,0,1,1,1,1,0,1,0,0,1,
118550014968,Jersey City,New Jersey,US,40.7282,-74.0776,0,0,0,0,0,1,0,0,,0,0,0,0,0,0,0,0,1,0,0,0,0,0,0,0,
118549997437,Kingston,Ontario,CA,44.2298,-76.481,1,0,0,0,0,0,0,0,,0,0,0,0,0,1,0,0,0,0,0,0,0,0,0,0,
118549990846,Montréal,Quebec,CA,45.5088,-73.5878,0,0,0,0,0,1,0,0,,0,0,0,0,0,0,0,0,1,0,0,0,0,0,0,0,
118549989585,London,Ontario,CA,42.9834,-81.233,0,0,0,0,0,0,0,0,historical house researcher,0,0,0,0,0,1,1,0,1,0,0,0,0,0,0,0,
118549989462,London,Ontario,CA,42.9834,-81.233,0,0,0,0,0,0,0,0,historical house researcher,0,0,0,0,0,1,1,0,1,0,0,0,0,0,0,0,
118549983187,Brossard,Quebec,CA,45.4501,-73.4658,0,0,0,0,0,0,1,0,,0,0,0,0,0,0,0,0,1,0,0,0,0,0,1,0,
118549954649,Calgary,Alberta,CA,51.0501,-114.0853,0,0,0,0,1,0,0,0,costume & railway historical researcher ,0,1,0,0,0,0,1,0,0,0,0,0,0,0,0,0,costumes& railway & communication - historical
118549951413,Kingston,Ontario,CA,44.2298,-76.481,0,0,0,0,0,0,0,0,columnist,0,0,0,0,0,0,0,0,1,0,0,0,0,0,0,0,
118549941245,Toronto,Ontario,CA,43.7064,-79.3986,0,0,0,0,0,0,1,0,,0,0,0,0,0,0,0,0,1,0,0,0,0,0,0,0,
118549937114,South Pasadena,Florida,US,27.755,-82.7376,0,0,1,0,0,1,0,0,,1,0,0,0,0,0,0,0,1,0,0,0,1,0,0,1,
118549918282,Jacksonville,Florida,US,30.3322,-81.6556,1,0,0,0,0,0,0,0,,0,0,0,0,0,1,0,0,0,0,0,0,0,0,0,0,
118549916423,Ladner,British Columbia,CA,49.0894,-123.0824,1,0,0,0,0,0,0,0,,0,0,0,0,0,1,0,0,0,0,0,0,0,0,0,0,
118549910597,Arbutus Ridge,British Columbia,CA,49.2497,-123.1693,0,0,0,0,0,0,1,0,,0,0,0,0,0,0,0,0,1,0,0,0,0,0,0,0,
118549903521,Milton,Ontario,CA,43.5168,-79.8829,0,0,0,0,1,0,0,0,,0,0,0,0,0,1,0,0,0,0,0,0,0,0,0,0,
118549900364,North Battleford,Saskatchewan,CA,52.7797,-108.2967,0,0,0,0,1,0,0,0,,0,0,0,0,0,0,0,0,1,0,0,0,0,0,0,0,
118549896172,Newmarket,Ontario,CA,44.0501,-79.4663,1,0,0,0,0,0,0,0,,0,0,0,0,0,1,0,0,0,0,0,0,0,0,0,0,
118549892325,Collingwood,Ontario,CA,44.4834,-80.2164,1,0,0,0,1,0,1,0,,0,0,0,0,0,0,0,0,1,0,0,0,0,0,0,0,
118549885965,Boutiliers Point,Nova Scotia,CA,44.6657,-63.9505,0,1,0,0,0,0,0,0,,0,0,0,0,0,0,0,0,1,0,0,0,0,0,0,0,
118549878887,Calgary,Alberta,CA,51.0412,-114.0762,1,0,0,0,0,0,0,0,,0,0,0,0,0,0,0,0,0,0,0,0,0,0,0,0,
118549865017,Calgary,Alberta,CA,51.0501,-114.0853,0,0,0,0,0,0,0,0,freelance historical researcher,0,0,0,0,0,0,0,0,0,0,0,0,0,0,0,0,
118549860641,Montréal,Quebec,CA,45.5088,-73.5878,0,1,0,0,0,0,0,0,,0,0,0,0,0,0,0,1,0,0,0,0,0,0,0,0,
118549853236,Ottawa,Ontario,CA,45.4112,-75.6981,0,0,0,0,1,0,0,0,,0,0,0,0,0,1,0,0,0,0,0,0,0,0,0,0,
118549850962,Tlalpan,Mexico City,MX,19.2951,-99.1621,0,0,0,0,0,0,0,0,writer,0,0,0,0,0,0,0,0,1,0,0,0,0,0,0,0,
118549848798,Calgary,Alberta,CA,51.0501,-114.0853,1,0,0,0,1,0,0,0,,0,0,0,0,0,1,0,0,0,0,0,0,0,0,0,0,
118549848509,Vernon,British Columbia,CA,50.2673,-119.2734,0,0,0,0,0,1,0,0,,0,0,0,0,0,0,0,0,1,0,0,0,0,0,0,0,economic history 
118549848227,Toronto,Ontario,CA,43.7064,-79.3986,1,0,0,0,1,1,0,0,,0,0,0,0,0,0,0,0,1,0,0,0,0,0,0,0,
118549836685,Lower Sackville,Nova Scotia,CA,44.776,-63.6786,1,0,0,0,0,0,0,0,,0,1,0,0,0,1,0,0,1,0,0,0,0,0,0,1,
118549824486,Ajax,Ontario,CA,43.8501,-79.0329,0,0,0,0,0,0,1,0,,0,0,0,0,0,0,0,0,0,0,0,0,0,0,0,0,linguistics and shorthand systems
118549815168,Pembroke,Ontario,CA,45.8168,-77.1162,0,0,0,0,1,0,0,0,,0,0,0,0,0,0,0,0,0,0,0,0,0,0,0,1,
118549813935,Toronto,Ontario,CA,43.7064,-79.3986,0,0,0,0,0,0,0,0,local historian,0,0,0,0,0,0,0,0,1,1,1,0,0,0,0,0,
118549775269,Vancouver,British Columbia,CA,49.2497,-123.1193,0,0,0,0,0,0,0,1,,0,0,0,0,0,0,0,1,0,0,0,0,0,0,0,0,
118549747571,Victoria,British Columbia,CA,48.4359,-123.3516,0,0,0,0,1,0,0,0,,0,0,0,0,0,0,0,0,1,0,0,0,0,0,0,0,
118549734444,Fergus,Ontario,CA,43.706,-80.3776,0,0,0,0,1,0,0,0,,0,0,0,0,0,1,0,0,0,0,0,0,0,0,0,0,
118549729572,Grande Prairie,Alberta,CA,55.1667,-118.8027,0,0,0,0,0,0,0,0,retired rcmp member ,0,0,0,0,0,0,0,0,1,0,0,0,0,0,0,0,
118549725073,Fresno,California,US,36.7487,-119.7867,1,0,0,0,0,0,0,0,,0,0,0,0,0,1,0,0,0,0,0,0,0,0,0,0,
118549706437,Rochdale,England,GB,53.6177,-2.1552,0,0,0,0,0,0,0,1,,0,0,1,0,0,0,0,0,0,0,0,0,0,0,0,0,
118549702854,Mississauga,Ontario,CA,43.5789,-79.6583,0,0,0,0,1,0,0,0,,0,0,0,0,0,0,0,0,1,0,0,0,0,0,0,0,
118549696456,Norfolk County,Ontario,CA,42.8334,-80.383,1,0,0,0,0,0,0,0,,0,0,0,0,0,1,0,0,0,0,0,0,0,0,0,0,
118549691729,Saint John,New Brunswick,CA,45.2708,-66.0562,1,0,0,0,0,0,0,0,,0,0,0,0,0,1,0,0,1,0,0,0,0,0,0,0,
118549690470,Red Deer,Alberta,CA,52.2668,-113.802,0,0,1,0,0,0,0,0,rcmp,0,0,0,0,0,0,0,0,1,0,0,0,0,0,0,0,
118549684113,Vancouver,British Columbia,CA,49.2497,-123.1193,0,0,0,0,0,0,0,0,retired rcmp,0,0,0,0,0,0,0,0,1,0,0,0,0,0,0,0,
118549679894,New York City,New York,US,40.7143,-74.006,1,0,0,0,0,0,0,0,,0,0,0,0,0,1,0,0,1,0,0,0,0,0,0,0,
118549677730,Toronto,Ontario,CA,43.7064,-79.3986,1,0,0,0,0,0,0,0,,0,0,0,0,0,1,0,0,1,0,0,0,0,0,0,0,
118549677640,Moncton,New Brunswick,CA,46.0945,-64.7965,1,0,0,0,1,0,0,0,,0,0,0,0,0,1,0,0,0,0,0,0,0,0,0,0,
118549676770,Worcester,Massachusetts,US,42.2626,-71.8023,1,0,0,0,1,0,0,0,,0,1,0,1,1,1,0,0,1,0,1,0,0,1,0,0,
118549668387,Toronto,Ontario,CA,43.7064,-79.3986,0,0,0,0,0,0,1,0,,0,0,0,0,0,1,0,0,0,0,0,0,0,0,0,0,
118549668197,Covington,Virginia,US,37.7935,-79.9939,1,0,0,0,0,0,0,0,,0,0,0,0,0,1,0,0,1,0,0,0,0,0,0,0,
118549662015,Edmonton,Alberta,CA,53.5501,-113.4687,1,0,0,0,0,0,0,0,,0,0,0,0,0,0,0,0,0,0,0,0,0,0,0,0,
118549652368,North Cowichan,British Columbia,CA,48.8413,-123.686,0,0,0,0,1,0,0,0,,0,0,0,0,0,0,0,0,1,0,0,0,0,0,0,0,
118549639068,Peterborough,Ontario,CA,44.3001,-78.3162,1,0,0,0,0,0,0,0,,0,0,0,0,0,1,0,0,1,0,0,0,0,0,0,0,
118549638905,Kamloops,British Columbia,CA,50.6665,-120.3192,0,0,0,0,0,0,0,0,retired rcmp member,0,0,0,0,0,0,0,0,1,0,0,0,0,0,0,0,
118549631144,Sault Ste. Marie,Ontario,CA,46.5168,-84.3333,1,0,0,0,0,0,0,0,,0,0,0,0,0,1,0,0,0,0,0,0,0,0,0,0,
118549630985,Winnipeg,Manitoba,CA,49.8844,-97.147,0,0,0,0,1,0,0,0,,0,0,0,0,0,0,0,0,1,0,0,0,0,0,0,0,
118549626311,Nepean,Ontario,CA,45.3362,-75.7225,0,0,0,0,1,0,0,0,,0,0,0,0,0,1,0,0,0,0,0,0,0,0,0,0,
118549614547,Toronto,Ontario,CA,43.7064,-79.3986,0,0,0,0,1,0,0,0,,0,0,0,0,0,1,0,0,0,0,0,0,0,0,0,0,
118549606007,Nepean,Ontario,CA,45.3362,-75.7225,0,0,0,0,1,0,0,0,,0,0,0,0,0,0,0,0,0,0,0,0,1,0,0,0,
118549602762,Toronto,Ontario,CA,43.6075,-79.5013,0,1,0,0,0,0,0,0,,0,0,0,0,0,0,0,0,1,0,0,0,0,0,0,0,
118549602101,Orillia,Ontario,CA,44.6087,-79.4207,1,0,0,0,0,0,0,0,,0,0,0,0,0,1,0,0,1,0,1,1,0,0,0,0,
118549586106,West Kelowna,British Columbia,CA,49.8625,-119.5833,0,0,0,0,0,0,1,0,,0,0,0,0,0,0,0,0,0,0,0,0,0,0,0,0,
118549581673,London,Ontario,CA,42.9834,-81.233,1,0,0,0,1,1,0,0,,0,0,0,0,0,1,1,0,1,1,1,0,0,0,0,0,
118549580813,Milton,Ontario,CA,43.5168,-79.8829,0,0,0,0,1,0,0,0,,0,0,0,0,0,0,0,0,0,0,0,0,0,1,0,0,
118549579403,South Huron,Ontario,CA,43.3168,-81.5165,1,0,0,0,0,0,0,0,,0,0,0,0,0,0,0,0,0,0,0,0,0,0,0,0,
118549572914,London,England,GB,51.5085,-0.1257,0,0,0,0,0,0,1,0,,0,0,0,0,0,0,0,0,1,0,0,0,0,0,0,0,
118549566234,Toronto,Ontario,CA,43.7064,-79.3986,0,0,0,0,0,0,1,0,,0,0,0,1,0,0,0,0,0,0,0,0,0,0,0,0,
118549557908,South Huron,Ontario,CA,43.3168,-81.5165,1,0,0,0,1,0,0,0,,0,0,0,0,0,1,0,0,1,0,0,0,0,0,0,0,
118549556963,Toronto,Ontario,CA,43.7064,-79.3986,1,0,0,0,0,0,0,0,,0,0,0,0,0,1,0,0,0,0,0,0,0,0,0,0,
118549556077,Borough Park,New York,US,40.6521,-74.0018,1,0,0,0,0,0,0,0,,0,0,0,0,0,0,0,0,1,0,0,0,0,0,0,0,
118549554775,Regina,Saskatchewan,CA,50.4501,-104.6178,1,0,0,0,0,1,1,0,,0,0,1,0,0,0,0,0,1,0,0,0,1,0,0,0,
118549554293,Castle Vale,England,GB,52.5282,-1.8549,0,0,0,0,1,0,0,0,,0,0,0,0,0,1,0,0,0,0,0,0,0,0,0,0,
118549552054,Ottawa,Ontario,CA,45.4112,-75.6981,0,0,1,0,0,0,0,0,,0,0,0,0,0,0,0,0,1,0,0,0,0,0,0,0,
118549549253,Winnipeg,Manitoba,CA,49.8844,-97.147,0,0,0,0,0,0,1,0,,0,0,0,0,0,0,0,0,0,0,0,0,0,0,0,0,business
118549547702,London,Ontario,CA,42.9834,-81.233,0,0,0,0,1,0,0,0,,0,0,0,0,0,0,0,0,1,0,0,0,0,0,0,0,
118549544523,Ottawa,Ontario,CA,45.4112,-75.6981,0,0,0,0,0,1,1,0,,0,0,0,0,0,0,0,0,1,1,1,0,0,0,0,1,
118549543973,Huntsville,Ontario,CA,45.3334,-79.2163,1,0,0,0,0,0,0,0,,0,0,0,0,0,1,0,0,1,0,0,0,0,0,0,0,
118549541275,Ottawa,Ontario,CA,45.4112,-75.6981,0,0,0,0,0,0,1,0,,0,0,0,0,0,0,0,0,1,0,0,0,0,0,0,1,
118549532154,Victoria,British Columbia,CA,48.4359,-123.3516,0,0,0,0,0,1,0,0,,0,0,0,0,0,0,1,0,0,0,0,0,0,0,0,0,
118549528639,Calgary,Alberta,CA,51.0501,-114.0853,0,0,0,0,0,0,0,0,retired rcmp member,0,0,0,0,0,0,0,0,1,0,0,0,0,0,0,0,
118549527418,Etobicoke,Ontario,CA,43.6442,-79.5699,0,0,0,0,1,0,0,0,,0,0,0,0,0,0,0,0,1,0,0,0,0,0,0,0,
118549519869,Rockville,Maryland,US,39.084,-77.1528,1,0,0,0,0,0,0,0,,0,0,0,0,0,1,0,0,0,0,0,0,0,0,0,0,
118549514842,Toronto,Ontario,CA,43.7064,-79.3986,0,0,0,0,1,0,0,0,,0,0,0,0,0,0,0,0,1,0,0,0,0,0,0,0,
118549509379,Davenport,Iowa,US,41.5618,-90.5403,1,0,0,0,0,0,0,0,,0,0,0,0,0,1,0,0,1,0,0,0,0,0,0,0,
118549508351,Toronto,Ontario,CA,43.7064,-79.3986,1,0,0,0,0,0,0,0,,0,0,0,0,0,1,0,0,0,0,0,0,0,0,0,0,
118549507073,Mississauga,Ontario,CA,43.5789,-79.6583,0,0,0,0,0,0,0,0,retired,0,0,0,0,0,0,0,0,1,0,0,0,1,0,0,0,
118549500845,Welland,Ontario,CA,42.9834,-79.2496,0,0,0,0,0,0,0,0,writer,0,0,0,0,0,0,0,0,1,0,0,0,0,0,0,0,
118549498958,Ottawa,Ontario,CA,45.4112,-75.6981,0,0,0,0,0,0,0,0,rcmp retiree,0,0,0,0,0,0,0,0,1,0,0,0,0,0,0,0,
118549493146,Mississauga,Ontario,CA,43.5789,-79.6583,0,0,0,0,1,0,0,0,,0,0,0,0,0,1,0,0,0,0,0,0,0,0,0,0,
118549493138,Zapopan,Jalisco,MX,20.7236,-103.3848,1,0,0,0,0,0,0,0,,0,0,0,0,0,1,0,0,0,0,0,0,0,0,0,0,
118549475934,Palm Desert,California,US,33.7225,-116.377,1,0,0,0,0,0,0,0,,0,0,0,0,0,1,0,0,0,0,0,0,0,0,0,0,
118549471765,Kingston,Ontario,CA,44.2298,-76.481,0,0,0,0,1,0,0,0,,0,0,0,0,0,0,0,0,1,0,0,0,0,0,0,0,
118549464665,Montréal,Quebec,CA,45.5088,-73.5878,0,0,0,0,0,0,0,0,artist,0,0,0,0,0,0,0,0,0,0,0,0,0,0,0,0,textile art and techniques
118549463604,Ottawa,Ontario,CA,45.4112,-75.6981,0,0,0,0,0,0,1,0,,0,0,0,0,0,0,0,0,1,0,0,0,0,0,0,0,
118549451309,Cabo San Lucas,Baja California Sur,MX,22.8909,-109.9124,0,0,0,0,1,0,0,0,,0,0,0,0,0,0,0,0,0,0,0,0,0,0,0,0,
118549440832,Dartmouth,Nova Scotia,CA,44.6713,-63.5772,0,0,0,0,1,0,0,0,,0,0,0,0,0,0,0,0,1,0,0,0,0,0,0,0,
118549431602,Gahanna,Ohio,US,40.0192,-82.8793,1,0,0,0,0,0,0,0,,0,0,0,0,0,1,0,0,0,0,0,0,0,0,0,0,
118549423498,Chicago,Illinois,US,41.85,-87.65,1,0,0,0,0,0,0,0,,0,0,0,0,0,1,0,0,0,0,0,0,0,0,0,0,
118549416263,Sydney,Nova Scotia,CA,46.1351,-60.1831,1,0,0,0,0,0,0,0,,0,0,0,0,0,1,0,0,1,0,0,0,0,0,0,0,
118549411520,Gahanna,Ohio,US,40.0192,-82.8793,1,0,0,0,0,0,0,0,,0,0,0,0,0,1,0,0,0,0,0,0,0,0,0,0,
118549407823,Caspe,Aragon,ES,41.234,-0.0394,0,0,0,0,1,0,0,0,,0,0,0,0,0,1,0,0,1,0,1,0,0,0,0,0,
118549406621,Paris,Île-de-France,FR,48.8534,2.3488,0,0,0,1,0,0,0,0,,0,0,0,0,0,0,0,0,1,0,0,0,0,0,0,0,
118549395180,Pincourt,Quebec,CA,45.3834,-73.9825,0,0,1,0,0,0,0,0,,1,0,0,0,0,0,0,0,0,0,0,0,0,0,0,0,
118549394827,Sydney,Nova Scotia,CA,46.1351,-60.1831,1,0,0,0,0,0,0,0,,0,0,0,0,0,1,0,0,0,0,0,0,0,0,0,0,
118549392054,London,England,GB,51.5085,-0.1257,0,0,0,0,1,0,0,0,,0,0,0,0,0,0,0,0,1,0,0,0,0,0,0,0,civil engineering
118549379235,Kentville,Nova Scotia,CA,45.0771,-64.496,1,0,0,0,1,0,0,0,,0,0,0,0,0,1,1,0,1,1,1,0,1,0,0,0,
118549379199,Edmonton,Alberta,CA,53.5501,-113.4687,0,0,0,0,1,0,0,0,,0,0,0,0,0,1,1,1,1,1,1,1,1,1,0,1,
118549366732,Berlin,Berlin,DE,52.5244,13.4105,0,0,0,0,0,1,0,0,,0,0,0,0,0,0,0,0,1,0,0,0,0,0,0,0,
118549316192,Hobart,Tasmania,AU,-42.8794,147.3294,0,0,0,0,1,0,0,0,,0,0,0,0,0,1,0,0,1,0,0,0,0,0,0,0,
118549297606,Dallas,Texas,US,32.7831,-96.8067,1,0,0,0,0,0,0,0,,0,0,0,0,0,1,0,0,0,0,0,0,0,0,0,0,
118549265780,Calgary,Alberta,CA,51.0501,-114.0853,0,0,0,0,0,0,1,0,,0,0,0,0,0,0,0,0,0,0,1,0,0,0,0,0,
118549263240,Truro,Nova Scotia,CA,45.3668,-63.2654,0,0,0,0,1,0,0,0,,0,0,0,0,0,0,0,0,1,0,0,0,0,0,0,0,
118549242679,High River,Alberta,CA,50.5834,-113.8687,0,0,0,0,1,0,0,0,,0,0,0,0,0,0,0,0,1,0,0,0,0,0,0,0,
118549232914,Calgary,Alberta,CA,51.0501,-114.0853,0,0,0,0,0,0,0,0,retired rcmp ,0,0,0,0,0,0,0,0,1,0,0,0,0,0,0,0,
118549225777,Sherwood Park,Alberta,CA,53.556,-113.2952,0,0,0,1,0,0,0,0,,0,0,0,0,0,0,0,0,0,0,0,0,1,0,0,0,
118549224128,Sunny Corner,New Brunswick,CA,47.1942,-65.9381,1,0,0,0,0,0,0,0,,0,0,0,0,0,1,0,0,0,0,0,0,0,0,0,0,obituary 
118549223515,Milton,Ontario,CA,43.5168,-79.8829,1,0,0,0,0,0,0,0,,0,0,0,0,0,1,0,0,1,0,0,0,0,0,0,0,
118549216050,Saint-Jérôme,Quebec,CA,45.7804,-74.0036,0,0,0,0,1,0,0,0,,0,0,0,0,0,0,0,0,0,0,0,0,1,0,0,0,
118549212700,Edgewater,Florida,US,28.9889,-80.9023,0,0,1,0,0,0,0,0,retired rcmp officer,0,0,0,0,0,0,1,0,0,0,0,0,1,0,0,0,
118549207720,Wellington,Wellington Region,NZ,-41.2866,174.7756,0,0,0,0,1,0,0,0,,0,0,0,0,0,0,0,0,1,0,0,0,0,0,0,0,
118549202600,Montréal,Quebec,CA,45.5088,-73.5878,0,0,0,0,0,0,1,0,,0,0,0,1,1,0,0,0,1,0,1,0,1,0,1,1,
118549202338,Simcoe,Ontario,CA,42.8334,-80.2997,1,0,0,0,0,0,0,0,,0,0,0,0,0,1,0,0,0,0,0,0,0,0,0,0,
118549194118,Des Moines,Washington,US,47.4018,-122.3243,0,0,1,0,0,0,0,0,,0,0,0,0,0,0,0,0,1,0,0,0,0,0,0,0,
118549193641,Johannesburg,Gauteng,ZA,-26.2023,28.0436,0,0,0,0,0,0,1,0,,0,0,0,0,0,0,0,0,0,0,0,0,0,0,0,0,engineering
118549181751,Victoria,British Columbia,CA,48.4359,-123.3516,0,0,0,0,0,0,1,0,,0,0,0,0,0,0,0,0,0,0,0,0,0,0,0,0,
118549162487,Canberra,Australian Capital Territory,AU,-35.2835,149.1281,0,0,0,0,1,0,0,0,,0,0,0,0,0,0,0,0,1,0,0,0,0,0,0,0,food history
118549156292,Fergus,Ontario,CA,43.706,-80.3776,0,0,0,0,1,0,0,0,,0,0,0,0,0,1,0,0,0,0,0,0,0,0,0,0,
118549154912,Courtenay,British Columbia,CA,49.6866,-124.9936,0,0,0,0,0,0,1,0,,0,1,0,0,0,0,0,0,0,0,0,0,0,0,0,0,
118549151661,Peoria,Illinois,US,40.6936,-89.589,0,0,0,0,1,0,0,0,,0,0,0,0,0,0,0,0,1,0,0,0,0,0,0,0,
118549145476,Kelowna,British Columbia,CA,49.8831,-119.4857,0,0,0,0,0,0,0,0,retired rcmp member,0,0,0,0,0,0,0,0,1,0,0,0,0,0,0,0,
118549143309,St. Catharines,Ontario,CA,43.1713,-79.2427,0,0,0,0,0,0,1,0,,0,0,0,0,0,0,0,0,1,0,0,0,0,0,0,0,
118549133528,Surrey,British Columbia,CA,49.1063,-122.8251,0,0,0,0,0,0,0,0,retired rcmp,0,0,0,0,0,0,0,0,0,0,0,0,1,0,0,0,
118549133381,Surrey,British Columbia,CA,49.1063,-122.8251,0,0,0,0,0,0,0,0,retired rcmp,0,0,0,0,0,0,0,0,0,0,0,0,1,0,0,0,
118549131784,Mount Pearl,Newfoundland and Labrador,CA,47.5166,-52.7814,0,0,0,0,1,0,0,0,,0,0,0,0,0,0,0,0,1,0,0,0,0,0,0,0,
118549123767,Vancouver,British Columbia,CA,49.2497,-123.1193,0,0,0,0,0,0,0,0,independent historian,0,0,0,0,0,0,0,0,1,0,0,0,0,0,0,0,
118549122073,Mississauga,Ontario,CA,43.5789,-79.6583,0,0,0,0,1,0,0,0,,0,0,0,0,0,1,0,0,0,0,0,0,0,0,0,0,
118549120810,Toronto,Ontario,CA,43.7064,-79.3986,0,0,0,0,1,0,0,0,,0,0,0,0,0,0,0,0,1,0,0,0,0,0,0,0,
118549120609,Toronto,Ontario,CA,43.7064,-79.3986,1,0,0,0,1,0,0,0,,0,0,0,0,0,1,0,0,1,1,1,0,0,0,0,0,
118549117430,Toronto,Ontario,CA,43.7064,-79.3986,0,0,0,1,0,0,0,0,,0,0,0,0,0,1,0,0,1,0,1,0,0,0,0,0,
118549084037,Toronto,Ontario,CA,43.7064,-79.3986,0,0,0,0,0,0,0,0,,0,0,0,0,0,0,0,0,0,0,1,0,0,0,0,0,
118549083999,Baltimore,Maryland,US,39.2904,-76.6122,1,0,0,0,0,0,0,0,,0,0,0,0,0,0,0,0,0,0,0,0,0,0,0,0,
118549079955,Vancouver,British Columbia,CA,49.2497,-123.1193,0,0,0,0,1,0,0,0,,0,0,0,0,0,0,0,0,1,0,0,0,0,0,0,0,
118549077638,Montréal,Quebec,CA,45.5005,-73.5684,1,0,0,0,0,0,0,0,,0,0,0,0,0,1,0,0,1,0,0,0,0,0,0,0,
118549077515,Hamilton,Ontario,CA,43.2501,-79.8496,0,0,0,0,0,0,1,0,,0,0,0,0,0,1,1,0,0,0,0,0,0,0,0,0,
118549072563,London,Ontario,CA,42.9834,-81.233,1,0,0,0,1,0,0,0,,0,0,0,0,0,0,1,0,1,0,0,0,0,0,0,0,
118549070910,Belmont,Ontario,CA,42.8834,-81.083,0,0,0,0,1,0,0,0,,0,0,0,0,0,0,0,0,0,0,0,0,0,0,0,0,
118549059191,Saskatoon,Saskatchewan,CA,52.1324,-106.6689,0,0,0,0,0,0,0,0,retired rcmp member and lawyer,0,0,0,0,0,0,0,0,0,0,0,0,1,0,0,0,
118549055708,Toronto,Ontario,CA,43.7064,-79.3986,1,0,0,0,0,0,0,0,,0,0,0,0,0,1,0,0,0,1,1,0,0,0,0,0,
118549051702,Sydney,Nova Scotia,CA,46.1351,-60.1831,0,0,0,0,1,0,0,0,,0,0,0,0,0,0,0,1,0,0,1,0,1,0,0,0,
118549042759,Winnipeg,Manitoba,CA,49.8844,-97.147,0,0,0,0,0,1,0,0,,0,0,0,0,0,0,1,0,0,0,0,0,0,0,0,0,
118549042085,Toronto,Ontario,CA,43.7064,-79.3986,0,0,0,0,0,0,1,0,,0,0,0,0,0,0,0,0,1,0,0,0,0,0,0,0,
118549041313,New Glasgow,Nova Scotia,CA,45.5834,-62.6486,1,0,0,0,1,0,0,0,,0,0,0,0,0,1,0,0,1,0,0,0,0,0,0,0,
118549040327,Ottawa,Ontario,CA,45.4112,-75.6981,0,0,0,0,0,0,1,0,,0,0,0,0,0,0,0,0,1,0,0,0,0,0,0,0,
118549038255,Québec,Quebec,CA,46.8123,-71.2145,0,0,0,0,1,0,0,0,with 2 brothers who served to retirement with the rcmp,0,0,0,0,0,0,0,0,0,0,0,0,0,0,0,0,
118549025140,Bridgewater,Nova Scotia,CA,44.3786,-64.5188,0,0,0,0,0,1,0,0,,0,0,0,0,0,0,0,0,1,0,0,0,0,0,0,0,
118549014780,Toronto,Ontario,CA,43.7064,-79.3986,0,0,0,0,0,0,0,0,retired rcmp member 1967-97,0,0,0,0,0,0,1,0,1,0,0,0,1,0,0,0,
118549011085,Erie,Pennsylvania,US,42.0738,-80.1484,1,0,0,0,0,0,0,0,,0,0,0,0,0,1,0,0,0,0,0,0,0,0,0,0,
118549004415,Calgary,Alberta,CA,51.0501,-114.0853,0,0,0,0,1,0,0,0,,0,0,0,0,0,0,0,0,0,0,0,0,1,0,0,0,
118549001191,Gatineau,Quebec,CA,45.4772,-75.7016,0,1,1,0,0,0,0,0,,0,0,0,0,0,0,0,0,0,0,1,0,0,0,0,0,
118548999158,Guelph,Ontario,CA,43.5459,-80.256,0,0,0,0,0,1,0,0,,0,0,0,0,0,0,0,0,1,0,0,0,0,0,0,0,
118548998645,Ottawa,Ontario,CA,45.4112,-75.6981,0,0,0,0,0,0,0,0,amateur historian,0,0,0,0,0,1,0,0,1,0,0,0,0,0,0,0,
118548963469,Toronto,Ontario,CA,43.7064,-79.3986,1,0,0,0,0,0,0,0,,0,0,0,0,0,1,0,0,0,0,0,0,0,0,0,0,
118548962795,Kelowna,British Columbia,CA,49.8831,-119.4857,0,0,0,0,0,0,0,0,retired rcmp officer,0,1,0,0,0,0,0,1,1,0,0,0,1,0,0,0,
118548961010,Oakville,Ontario,CA,43.4501,-79.6829,1,0,0,0,0,0,0,0,,0,0,0,0,0,0,0,0,1,0,0,0,0,0,0,0,
118548954197,Chicago,Illinois,US,41.85,-87.65,1,0,0,0,0,0,0,0,,0,0,0,0,0,1,0,0,0,0,0,0,0,0,0,0,
118548951596,Richmond,British Columbia,CA,49.17,-123.1368,0,0,0,0,0,0,0,0,retired rcmp,0,0,0,0,0,1,1,1,1,0,0,0,0,0,0,0,rcmp quarterly
118548949810,Ottawa,Ontario,CA,45.4112,-75.6981,0,0,1,0,0,0,0,0,,0,0,0,0,0,0,0,0,1,0,1,0,1,0,0,0,
118548945231,Alliston,Ontario,CA,44.1501,-79.8663,0,1,0,0,0,0,0,0,,0,0,0,0,0,0,0,0,1,0,0,0,0,0,0,0,
118548944637,Toronto,Ontario,CA,43.7064,-79.3986,1,0,0,0,0,1,0,0,,0,1,0,0,0,0,0,0,1,0,0,0,0,0,0,0,archaeology
118548941272,Toronto,Ontario,CA,43.7064,-79.3986,0,0,0,0,0,0,0,0,archaeologist,0,0,0,0,0,0,0,0,1,0,0,0,0,0,0,0,
118548940289,Kingston,Ontario,CA,44.2298,-76.481,0,0,0,0,1,0,0,0,,0,0,0,0,0,0,0,0,1,0,0,0,0,0,0,0,
118548939439,Nelson,British Columbia,CA,49.4999,-117.2855,0,0,0,0,1,0,0,0,,0,0,0,0,0,0,1,0,1,1,0,0,1,0,0,0,
118548934222,Toronto,Ontario,CA,43.7064,-79.3986,0,0,0,0,1,0,0,0,,0,0,0,0,0,0,0,0,0,0,0,0,0,0,0,0,
118548930555,Saint John,New Brunswick,CA,45.2708,-66.0562,0,0,0,0,0,0,0,0,retired rcmp member,0,0,0,1,0,0,1,0,1,0,0,1,1,0,1,0,
118548918337,Walnut Grove,British Columbia,CA,49.1647,-122.6404,0,0,0,0,1,0,0,0,,0,0,0,0,0,0,0,0,1,0,0,0,1,0,0,0,
118548914172,Edmonton,Alberta,CA,53.5501,-113.4687,0,0,0,0,0,1,0,0,,0,0,0,0,0,0,0,0,0,0,1,0,0,0,0,0,
118548913251,Bethesda,Maryland,US,38.9807,-77.1003,1,0,0,0,0,0,0,0,,0,0,0,0,0,1,0,0,0,0,0,0,0,0,0,0,
118548906713,Edmonton,Alberta,CA,53.5931,-113.4077,0,0,0,0,1,0,0,0,,1,1,1,1,0,1,0,1,0,1,1,0,1,1,0,0,
118548896728,Winnipeg,Manitoba,CA,49.8844,-97.147,0,0,0,0,0,0,1,0,,0,0,0,0,0,0,0,0,1,0,0,0,0,0,0,0,
118548884509,Winnipeg,Manitoba,CA,49.8143,-97.1531,0,0,0,0,0,1,0,0,,0,0,0,0,0,0,0,0,1,0,1,0,0,0,0,0,
118548877027,Brockville,Ontario,CA,44.5913,-75.687,1,0,0,0,1,0,0,0,,0,0,0,0,0,0,0,0,1,0,0,0,0,0,0,0,
118548862635,New Haven,Connecticut,US,41.3081,-72.9282,0,0,0,0,0,0,1,0,,0,0,0,0,0,0,0,0,0,0,0,0,0,0,0,1,
118548856835,Cochrane,Alberta,CA,51.1834,-114.4687,0,0,0,0,0,0,0,0,retired rcmp member,0,0,0,1,0,0,0,1,0,0,0,0,1,0,0,0,
118548853646,London,Ontario,CA,42.9834,-81.233,0,0,0,0,0,1,0,0,,0,0,0,0,0,0,0,0,1,0,0,0,0,0,1,0,
118548850287,Fort Worth,Texas,US,32.7254,-97.3208,1,0,0,0,0,0,0,0,,0,0,0,0,0,1,0,0,0,0,0,0,0,0,0,0,
118548847301,Montréal,Quebec,CA,45.5088,-73.5878,1,0,0,0,0,0,1,0,,0,0,0,0,0,1,0,0,1,0,0,0,0,0,0,0,
118548839701,Regina,Saskatchewan,CA,50.4501,-104.6178,0,0,0,0,1,0,0,0,,0,0,0,0,0,0,0,0,1,0,0,0,0,0,0,0,
118548815654,Klamath Falls,Oregon,US,42.2933,-121.8169,1,0,0,0,0,0,0,0,,0,0,0,0,0,1,0,0,0,0,0,0,0,0,0,0,
118548810127,Gatineau,Quebec,CA,45.4772,-75.7016,0,0,1,0,0,0,0,0,,0,0,0,0,0,0,0,0,1,0,0,0,0,0,0,0,
118548796862,Richmond Hill,Ontario,CA,43.8711,-79.4373,0,0,0,0,1,0,0,0,ex-rcmp,0,0,0,0,0,0,0,0,0,0,0,0,1,0,0,0,
118548796222,Orillia,Ontario,CA,44.6087,-79.4207,1,0,0,0,0,0,0,0,,0,0,0,0,0,1,0,0,0,0,0,0,0,0,0,0,
118548779086,Toronto,Ontario,CA,43.7064,-79.3986,0,0,0,1,0,0,0,0,,0,0,0,0,0,0,0,0,1,0,0,0,0,0,0,0,
118548775571,Toronto,Ontario,CA,43.7064,-79.3986,1,0,0,0,0,0,0,0,,0,0,1,0,0,1,0,0,1,0,1,0,0,0,0,0,
118548765186,São Paulo,São Paulo,BR,-23.5475,-46.6361,0,0,0,0,1,0,0,0,,0,0,0,0,0,0,0,0,1,0,0,0,0,0,0,0,
118548739844,Smiths Falls,Ontario,CA,44.9045,-76.0233,0,0,0,0,0,1,0,0,,0,0,0,0,0,1,1,0,1,0,1,1,0,0,0,0,local history
118548737974,Abbotsford,British Columbia,CA,49.058,-122.2526,0,0,0,0,1,0,0,0,,0,0,0,0,0,0,0,0,1,0,0,0,0,0,0,0,
118548735924,Los Angeles,California,US,34.0522,-118.2437,0,0,0,0,0,0,0,0,historian ,0,0,0,0,0,1,1,0,1,0,0,0,0,0,0,0,
118548735076,Spruce Grove,Alberta,CA,53.5334,-113.9187,0,0,0,0,1,0,0,0,,0,0,0,0,0,0,0,0,1,0,0,0,0,0,0,0,
118548727009,Toronto,Ontario,CA,43.7064,-79.3986,0,0,0,0,0,0,0,1,,0,0,1,0,0,0,0,0,1,0,0,0,0,0,0,0,
118548725511,Winnipeg,Manitoba,CA,49.8844,-97.147,0,0,0,0,0,0,1,0,,0,0,0,0,0,0,0,0,1,0,0,0,0,0,0,0,
118548719781,Kingston,Ontario,CA,44.2298,-76.481,1,0,0,0,0,0,0,0,,0,0,0,0,0,1,0,0,0,0,0,0,0,0,0,0,
118548717010,Kingston,Ontario,CA,44.2298,-76.481,0,1,0,0,0,0,1,0,,0,0,0,0,0,0,0,0,1,1,0,0,0,0,0,0,
118548709846,Yarmouth,Nova Scotia,CA,43.8334,-66.1156,0,0,0,0,1,0,0,0,,0,0,1,0,0,0,0,0,0,0,0,0,0,0,0,0,
118548701016,London,Ontario,CA,42.9834,-81.233,1,0,0,0,1,1,0,0,,0,0,0,0,0,1,0,0,0,0,0,0,0,0,0,0,
118548693658,Montréal,Quebec,CA,45.5088,-73.5878,0,0,0,0,0,0,0,0,rcmp/grc veteran,1,0,0,0,0,0,0,0,0,0,0,0,1,0,0,1,canada's official languages
118548678202,Toronto,Ontario,CA,43.7064,-79.3986,0,0,0,0,0,0,0,1,,0,0,1,0,0,0,0,0,0,0,0,0,0,0,0,0,
118548657522,Toronto,Ontario,CA,43.7064,-79.3986,1,0,0,0,1,1,0,0,,0,0,0,0,0,0,0,0,1,0,0,0,0,0,0,0,
118548637518,Kemptville,Ontario,CA,45.0168,-75.641,0,0,0,0,1,0,0,0,,0,0,0,0,0,0,0,0,1,0,0,0,0,0,0,0,
118548636386,Barrie,Ontario,CA,44.4001,-79.6663,0,0,0,0,0,0,1,0,,0,0,0,0,0,0,0,0,1,0,0,0,0,0,0,0,
118548609944,Dartmouth,Nova Scotia,CA,44.6713,-63.5772,0,0,1,0,0,0,0,0,,0,0,0,0,0,0,0,1,0,0,0,0,0,0,0,0,
118548530792,Niagara Falls,Ontario,CA,43.1001,-79.0663,1,0,0,0,0,0,0,0,,0,0,0,0,0,0,1,0,0,0,0,0,0,0,0,0,
118548518679,San Jose,California,US,37.3394,-121.895,0,0,0,0,0,0,1,0,,0,0,0,0,0,0,0,0,0,0,0,0,0,0,0,1,
118548508866,Arona,Canary Islands,ES,28.0996,-16.681,0,0,0,0,1,0,0,0,retired rcmp member (1972-2007),0,0,0,0,0,0,0,0,0,0,0,0,0,0,0,0,
118548501516,Calgary,Alberta,CA,51.0501,-114.0853,0,0,0,0,1,0,0,0,retired rcmp member,0,0,0,0,0,0,0,0,1,0,0,0,0,0,0,0,
118548449924,Chicago,Illinois,US,41.85,-87.65,0,0,0,0,1,0,1,0,,0,0,1,1,0,0,0,0,0,0,1,1,1,1,1,1,
118548422999,Riga,Riga,LV,56.946,24.1059,1,0,0,0,0,0,0,0,,0,0,0,0,0,0,0,0,1,0,0,0,0,0,0,0,
118548422631,Oshawa,Ontario,CA,43.8852,-78.8771,0,0,0,0,0,0,1,0,,0,0,1,0,0,0,0,1,0,0,0,0,0,0,0,0,
118548411626,Vancouver,British Columbia,CA,49.2497,-123.1193,0,0,0,0,0,0,1,0,,0,0,0,0,0,0,1,0,0,0,0,0,0,0,0,0,
118548410809,Vancouver,British Columbia,CA,49.2497,-123.1193,0,0,0,0,0,0,1,0,,0,0,0,0,0,0,0,0,0,0,1,0,0,0,0,1,
118548406837,Beaumont,Alberta,CA,53.3501,-113.4187,0,0,0,0,0,0,0,0,retired member,0,0,0,0,0,0,0,0,0,0,0,0,0,0,0,0,rcmp history 
118548403220,Canberra,Australian Capital Territory,AU,-35.2835,149.1281,0,0,0,0,0,0,0,0,independent researcher,0,0,0,0,0,0,0,0,1,0,0,0,0,0,0,0,
118548400617,Winnipeg,Manitoba,CA,49.8844,-97.147,0,0,0,0,0,1,1,0,,0,0,0,0,0,0,0,0,1,0,0,0,0,0,0,0,
118548394882,Edmonton,Alberta,CA,53.5501,-113.4687,0,0,0,0,0,0,1,0,,0,0,0,0,0,0,0,0,0,0,0,0,0,0,0,0,
118548380737,Thunder Bay,Ontario,CA,48.382,-89.2502,1,0,0,0,0,0,0,0,,0,0,0,0,0,1,0,0,1,0,0,0,0,0,0,0,
118548380239,Sherwood Park,Alberta,CA,53.5168,-113.3187,0,0,1,0,0,0,0,0,,1,0,0,0,0,0,0,0,0,0,0,0,1,0,0,0,
118548375785,Victoriaville,Quebec,CA,46.0501,-71.9658,0,0,0,0,1,0,0,0,,1,0,0,0,0,0,0,0,0,0,0,0,1,0,0,0,
118548375686,Toronto,Ontario,CA,43.7064,-79.3986,1,0,0,0,0,0,0,0,,0,0,0,0,0,0,0,0,1,0,0,0,0,0,0,0,
118548369841,Phoenix,Arizona,US,33.4484,-112.074,0,0,0,0,0,0,0,0,retired member,0,0,0,0,0,0,0,0,0,0,0,0,1,0,0,0,
118548368914,Ottawa,Ontario,CA,45.4112,-75.6981,0,0,0,0,1,0,0,0,,0,0,0,0,0,0,0,0,1,0,0,0,0,0,0,0,
118548366656,Burnaby,British Columbia,CA,49.2664,-122.9526,0,0,0,0,1,0,0,0,,0,0,0,0,0,0,0,0,1,0,0,0,0,0,0,0,
118548355614,Spruce Grove,Alberta,CA,53.5334,-113.9187,0,0,0,0,0,0,0,0,retired rcmp,0,0,0,0,0,0,0,0,1,0,0,0,0,0,0,0,
118548354693,Panama City,Colón,PA,9.334,-79.8917,0,0,0,0,1,0,0,0,,0,0,0,0,0,1,0,0,1,0,0,0,0,0,0,0,
118548351064,Duck Lake,British Columbia,CA,50.0088,-119.3967,0,0,0,0,0,0,1,0,,0,0,0,0,0,0,0,0,0,0,0,0,0,0,0,0,
118548343383,Montréal,Quebec,CA,45.5088,-73.5878,0,0,0,0,0,0,0,1,,0,0,0,0,0,0,0,0,1,0,1,0,0,0,0,0,
118548339328,Surrey,British Columbia,CA,49.1063,-122.8251,1,0,0,0,0,0,0,0,,0,0,0,0,0,1,0,0,0,0,0,0,0,0,0,0,
118548337853,Ottawa,Ontario,CA,45.4112,-75.6981,0,0,0,0,1,0,0,0,,0,0,0,0,0,1,1,0,1,0,0,0,0,0,0,0,
118548331056,Vernon,British Columbia,CA,50.2673,-119.2734,0,0,0,0,0,0,0,0,retired member,0,0,0,0,0,0,0,0,1,0,0,0,0,0,0,0,
118548330176,Calgary,Alberta,CA,51.0823,-113.9578,0,0,0,0,0,0,0,0,retired rcmp member,0,0,0,0,0,0,0,0,0,0,0,0,0,0,0,0,
118548323167,Ottawa,Ontario,CA,45.4112,-75.6981,0,0,0,0,1,0,0,0,,0,0,0,0,0,1,0,0,0,0,0,0,0,0,0,0,
118548321853,Kingston,Ontario,CA,44.2298,-76.481,0,0,0,0,1,0,0,0,,0,0,0,0,0,1,0,0,0,0,0,0,0,0,1,0,
118548314890,Kingston,Ontario,CA,44.2298,-76.481,0,0,0,0,1,0,0,0,,0,0,0,0,0,0,0,0,1,0,0,0,0,0,0,0,
118548309195,New York City,New York,US,40.7143,-74.006,1,0,0,0,0,0,0,0,,0,0,0,0,0,1,0,0,0,0,0,0,0,0,0,0,
118548306761,Port Hawkesbury,Nova Scotia,CA,45.6165,-61.3564,0,0,0,0,1,0,0,0,,0,0,0,0,0,0,0,0,1,0,0,0,0,0,0,0,
118548303952,Surrey,British Columbia,CA,49.1063,-122.8251,0,0,0,0,1,0,0,0,,0,0,0,0,0,1,0,0,0,0,0,0,0,0,0,0,
118548301136,Brandon,Manitoba,CA,49.8469,-99.9531,0,0,0,0,0,0,0,0,,0,0,0,0,0,0,0,0,0,0,0,0,1,0,0,0,
118548299567,Santa Barbara,California,US,34.4208,-119.6982,0,0,0,0,0,1,0,0,,0,0,0,0,0,0,0,0,1,0,0,0,0,0,0,0,
118548298603,Toronto,Ontario,CA,43.6564,-79.386,1,0,0,0,0,0,0,0,,0,0,0,0,0,1,1,0,1,0,0,0,0,0,0,0,
118548292588,St. Albert,Alberta,CA,53.6334,-113.6353,1,0,0,0,1,0,0,0,,0,0,1,0,0,1,1,0,1,0,0,0,1,0,0,0,
118548291102,Prince George,British Columbia,CA,53.9166,-122.753,0,1,0,0,0,0,0,0,,0,0,0,0,0,0,0,0,1,0,0,0,0,0,0,0,
118548285235,Kingston,Ontario,CA,44.2298,-76.481,0,0,0,0,1,0,0,0,,0,0,0,0,0,1,0,0,0,0,0,0,0,0,0,0,
118548283052,Toronto,Ontario,CA,43.7064,-79.3986,1,0,0,0,0,0,0,0,,0,0,0,0,0,0,0,0,0,0,0,0,0,0,0,0,
118548281514,Plattsburgh,New York,US,44.6995,-73.4529,1,0,0,0,0,0,0,0,,0,0,0,0,0,1,0,0,0,0,0,0,0,0,0,0,
118548280625,Vancouver,British Columbia,CA,49.262,-123.0923,1,0,0,0,0,0,0,0,,0,0,0,0,0,1,1,0,1,0,0,0,0,0,0,0,
118548280238,Thorold,Ontario,CA,43.1313,-79.2317,1,0,0,0,0,1,0,1,,0,0,0,0,0,0,0,0,1,0,0,0,0,0,0,0,
118548277430,Guelph,Ontario,CA,43.5459,-80.256,1,0,0,0,0,0,0,0,,0,0,0,0,0,0,0,0,1,0,0,0,0,0,0,0,
118548273957,Indiantown,Florida,US,27.0273,-80.4856,0,0,0,0,0,0,0,0,retired rcmp,0,0,0,0,0,0,0,0,1,0,0,0,0,0,0,1,
118548272068,Aldergrove,British Columbia,CA,49.058,-122.4709,0,0,1,0,0,0,0,0,,0,0,0,0,0,0,0,0,0,0,0,0,0,0,0,0,
118548271442,Winnipeg,Manitoba,CA,49.8844,-97.147,0,0,0,0,0,0,0,0,retired rcmp member,0,0,0,0,0,0,0,0,0,0,0,0,0,0,0,0,
118548258423,Parksville,British Columbia,CA,49.3195,-124.3157,1,0,0,0,1,0,0,0,,0,0,0,0,0,1,0,0,0,0,0,0,0,0,0,0,
118548257668,Sherwood Park,Alberta,CA,53.5168,-113.3187,0,0,0,0,0,0,0,0,ex auxiliary member ,0,0,0,0,0,0,0,0,1,0,0,0,0,0,0,0,
118548254760,Invermere,British Columbia,CA,50.5167,-116.0354,1,0,0,1,0,1,0,0,retired professor,0,0,0,0,0,1,0,0,1,0,1,0,1,0,0,1,
118548250160,Victoria,British Columbia,CA,48.4359,-123.3516,0,0,0,0,0,0,0,0,retired rcmp ,0,0,0,0,0,0,0,0,0,0,0,0,0,0,0,0,
118548241443,Lethbridge,Alberta,CA,49.7,-112.8186,0,0,0,0,1,0,0,0,,0,0,0,0,0,0,0,0,1,0,0,0,0,0,0,0,
118548239960,Halifax,Nova Scotia,CA,44.6427,-63.5769,1,0,0,0,0,0,0,0,,0,0,0,0,0,1,0,0,0,0,0,0,0,0,0,0,
118548238219,Courtenay,British Columbia,CA,49.6866,-124.9936,0,0,0,0,0,0,0,0,retired rcmp,0,0,0,0,0,0,0,0,1,0,0,0,0,0,0,0,
118548236587,Vancouver,British Columbia,CA,49.2769,-122.9761,0,0,0,0,0,0,0,0,retired peace officer,0,0,0,0,0,0,0,0,1,0,0,0,0,0,0,0,
118548233027,Grand Falls-Windsor,Newfoundland and Labrador,CA,48.9332,-55.6649,0,0,0,0,1,0,0,0,,1,0,0,0,0,1,0,0,1,0,0,0,0,0,0,0,
118548228064,Cobourg,Ontario,CA,43.9598,-78.1651,0,0,0,0,1,0,0,0,,0,0,0,0,0,0,0,0,1,0,0,0,1,0,0,1,
118548227403,Ottawa,Ontario,CA,45.4112,-75.6981,0,0,0,0,0,0,0,0,veteran (rcmp),0,0,0,0,0,0,0,0,0,0,0,0,0,0,0,0,general interest
118548226050,Montréal,Quebec,CA,45.5005,-73.5684,0,0,0,0,0,0,0,0,retired member,0,0,0,0,0,0,0,0,0,0,0,0,0,0,0,0,subscriber hard copy since 1956
118548222658,Kenora,Ontario,CA,49.7674,-94.4899,0,0,0,0,1,0,0,0,,0,0,0,0,0,0,0,0,1,0,0,0,0,0,0,0,
118548211805,Madrid,Madrid,ES,40.4165,-3.7026,0,0,0,0,0,0,1,0,,1,0,0,0,0,0,0,0,0,0,0,0,0,0,0,0,
118548206359,Salmon Arm,British Columbia,CA,50.6998,-119.3024,0,0,0,0,0,0,0,0,retired rcmp member,0,0,1,0,0,0,0,0,1,0,0,0,1,0,0,0,
118548206313,Calgary,Alberta,CA,51.0501,-114.0853,0,0,0,0,1,0,0,0,,0,0,0,0,0,0,0,0,1,0,0,1,0,1,0,0,
118548201106,Peace River,Alberta,CA,56.2371,-117.2918,0,0,0,0,0,0,1,0,,0,0,0,0,0,0,0,0,1,0,0,0,0,0,0,0,
118548197190,Edmonton,Alberta,CA,53.5501,-113.4687,1,0,0,0,1,0,0,0,,0,0,0,0,0,1,1,0,1,0,0,0,0,0,0,0,railways
118548194522,Montréal,Quebec,CA,45.5088,-73.5878,0,0,0,0,0,0,0,0,translator,0,0,0,0,0,0,0,0,1,0,0,0,0,0,0,0,
118548191253,Kingston,Ontario,CA,44.2814,-76.6111,0,0,0,0,1,0,0,0,,0,0,0,0,0,1,0,0,0,0,0,0,0,0,0,0,
118548189717,Kanata,Ontario,CA,45.3001,-75.9161,1,0,0,0,0,0,0,0,,0,0,0,0,0,1,0,0,0,0,0,0,0,0,0,0,
118548187922,Maple Ridge,British Columbia,CA,49.2194,-122.6019,0,0,0,0,0,0,0,0,veteran,1,0,1,0,0,1,1,1,1,0,0,0,1,0,0,1,
118548187202,Edmonton,Alberta,CA,53.5501,-113.4687,0,0,0,0,0,0,0,0,former member of the rcmp,0,0,0,0,0,0,0,0,0,0,0,0,0,0,0,0,intgerested in reading some of the old stories in the quarterly
118548181140,Montréal,Quebec,CA,45.5088,-73.5878,0,0,0,0,1,0,0,0,,0,0,0,0,0,0,0,0,1,0,0,0,0,0,0,0,
118548177910,Cochrane,Alberta,CA,51.1834,-114.4687,0,0,0,0,0,0,0,0,retired rcmp,0,0,0,0,0,0,0,0,1,0,0,0,1,0,0,0,
118548177596,Kelowna,British Columbia,CA,49.8831,-119.4857,0,0,0,0,1,0,0,0,,0,0,0,0,0,1,1,1,1,0,0,0,0,1,0,0,as these topics affect my search for family history/migration etc.
118548176960,Carleton Place,Ontario,CA,45.1334,-76.1494,0,0,0,0,0,0,1,0,,0,0,0,0,0,0,0,0,1,0,0,0,0,0,0,0,
118548175569,Ajax,Ontario,CA,43.8501,-79.0329,0,0,0,0,1,0,0,0,,0,0,0,0,0,0,0,0,0,0,0,0,0,0,0,0,
118548173026,Prince George,British Columbia,CA,53.9166,-122.753,0,0,0,0,1,0,0,0,,0,0,0,0,0,0,0,0,1,0,0,0,1,0,0,0,
118548172883,Irapuato,Guanajuato,MX,20.6767,-101.3563,0,0,0,0,0,0,0,0,ex member,0,0,0,0,0,0,0,0,1,0,0,0,0,0,0,0,
118548167846,Toronto,Ontario,CA,43.7064,-79.3986,1,0,0,0,0,0,0,0,,0,0,0,0,0,1,0,0,1,0,0,0,0,0,0,0,
118548167428,Spruce Grove,Alberta,CA,53.5334,-113.9187,0,0,0,0,1,0,0,0,,0,0,0,0,0,0,0,0,0,1,0,0,0,0,0,0,
118548166484,Kitchener,Ontario,CA,43.4254,-80.5112,0,0,0,0,0,0,1,0,,0,0,0,0,0,0,0,0,1,0,0,0,0,0,0,0,
118548164812,Edmonton,Alberta,CA,53.5501,-113.4687,1,0,0,0,0,0,0,0,,0,0,0,0,0,1,0,0,0,0,0,0,0,0,0,0,
118548161159,Kingston,Ontario,CA,44.2298,-76.481,0,0,0,0,1,0,0,0,,1,0,0,0,0,1,0,0,0,0,0,0,0,0,0,0,
118548156982,Toronto,Ontario,CA,43.623,-79.3936,0,0,0,0,0,0,0,0,retired rcmp member,0,0,0,0,0,0,1,0,1,0,0,0,0,0,0,0,
118548154808,Whitehorse,Yukon,CA,60.7161,-135.0538,1,0,0,0,0,0,0,0,,0,0,0,0,0,1,0,0,1,0,0,0,0,0,0,0,
118548152359,Winnipeg,Manitoba,CA,49.8844,-97.147,0,0,1,0,0,0,0,0,retired rcmp/ canadian military ,0,0,1,0,0,0,0,0,1,0,0,0,1,0,0,0,
118548151190,Ottawa,Ontario,CA,45.4112,-75.6981,1,0,0,0,0,0,0,0,,0,0,0,0,0,1,0,0,1,0,0,0,0,0,0,0,
118548150649,Huntsville,Alabama,US,34.7304,-86.5859,0,0,0,0,1,0,0,0,,0,0,0,0,0,0,0,0,1,0,0,0,0,0,0,0,
118548140889,Kanata,Ontario,CA,45.3001,-75.9161,0,0,0,0,0,0,0,0,rcmp retired,0,0,0,0,0,0,0,0,1,0,0,0,0,0,0,0,
118548137672,Chilliwack,British Columbia,CA,49.1664,-121.9526,0,0,0,0,0,0,0,0,retired rcmp member/,0,0,0,0,0,0,0,0,0,0,0,0,0,0,0,0,checking into the personal events during my career such as marriage and dates of birth of my sons.i
118548137473,Ottawa,Ontario,CA,45.4112,-75.6981,0,0,0,0,0,0,0,0,rcmp veteran ,0,0,0,0,0,0,0,0,1,0,0,0,0,0,0,0,
118548134197,Montréal,Quebec,CA,45.5088,-73.5878,0,0,0,0,0,0,1,0,,0,0,0,0,0,0,1,0,0,0,0,0,0,0,0,0,
118548132705,Kenora,Ontario,CA,49.7674,-94.4899,0,0,0,0,1,0,0,0,,0,0,0,0,0,0,0,0,1,0,0,0,0,0,0,0,
118548132478,Cornwall,Ontario,CA,45.0181,-74.7281,0,0,0,0,1,0,0,0,,0,0,0,0,0,0,0,0,0,0,0,0,0,0,0,0,
118548126781,Perth,Ontario,CA,44.9001,-76.2494,0,0,0,0,1,0,0,0,,0,0,0,0,0,0,0,0,1,0,0,0,0,0,0,0,
118548123740,Fallingbrook,Ontario,CA,45.4756,-75.484,0,0,0,0,0,0,0,0,rcmp veteran,0,0,0,0,0,0,0,0,0,0,0,0,1,0,0,1,
118548117420,Toronto,Ontario,CA,43.7247,-79.2312,1,0,0,0,0,0,0,0,,0,0,0,0,0,1,0,0,1,0,0,0,0,0,0,0,
118548117368,Montréal,Quebec,CA,45.5088,-73.5878,0,0,0,0,0,0,0,0,rcmp veteran,0,0,0,0,0,0,1,0,1,0,0,0,0,0,0,0,
118548115893,St. John's,Newfoundland and Labrador,CA,47.5649,-52.7093,0,0,0,0,0,0,0,0,retired rcmp member ,0,0,0,0,0,0,1,0,1,0,0,0,1,0,0,0,
118548115065,Mississauga,Ontario,CA,43.5789,-79.6583,0,0,0,1,0,0,0,0,,0,0,0,0,0,0,0,0,0,0,0,0,1,0,0,1,
118548111572,Kingston,Ontario,CA,44.2298,-76.481,1,0,0,1,1,0,0,0,,0,0,0,0,0,1,1,0,1,0,1,0,0,0,0,1,
118548110965,Toronto,Ontario,CA,43.7064,-79.3986,0,0,0,0,0,0,0,1,,0,0,0,0,0,0,0,0,1,0,0,0,0,0,0,1,
118548109889,Vancouver,British Columbia,CA,49.2497,-123.1193,0,0,0,1,0,0,0,0,,0,0,0,0,0,0,0,0,0,1,0,0,0,0,0,0,
118548109633,Maricopa,Arizona,US,33.0581,-112.0476,0,0,0,0,1,0,0,0,,0,0,0,0,0,0,1,1,1,0,0,0,0,0,0,0,
118548107786,Gatineau,Quebec,CA,45.4772,-75.7016,0,0,1,0,0,0,0,0,,0,0,0,0,0,0,0,0,1,0,0,0,0,0,0,0,
118548107364,Elliot Lake,Ontario,CA,46.3834,-82.6332,0,0,0,0,0,0,0,0,retired rcmp,0,0,0,0,0,0,0,0,1,0,0,0,0,0,0,0,
118548106273,Vernon,British Columbia,CA,50.2673,-119.2734,0,0,0,0,1,0,0,0,,0,0,0,0,0,1,0,0,0,0,0,0,0,0,0,0,
118548105763,Los Angeles,California,US,34.0522,-118.2437,0,0,0,0,0,0,0,0,retired rcmp,0,0,0,0,0,0,0,0,0,0,0,0,0,0,0,0,general interest 
118548104650,Toronto,Ontario,CA,43.7064,-79.3986,0,0,0,0,1,0,0,0,retired rcmp member,0,0,0,0,0,0,0,0,1,0,0,0,1,0,0,0,
118548104543,Winnipeg,Manitoba,CA,49.8844,-97.147,0,0,0,0,1,0,0,0,,0,0,0,0,0,0,0,0,1,0,0,0,0,0,0,0,
118548101550,Lakeland,Florida,US,28.0496,-82.0069,0,0,0,0,1,0,0,0,,0,0,0,0,0,0,0,0,1,0,0,0,0,0,0,0,
118548100808,Niagara Falls,Ontario,CA,43.1009,-79.1379,0,0,0,0,0,0,0,0,retired rcmp,0,0,0,0,0,0,0,0,1,0,0,0,0,0,0,0,
118548100504,Parksville,British Columbia,CA,49.3195,-124.3157,0,0,0,0,0,0,0,0,rcmp retired,0,0,0,0,0,0,1,0,0,0,0,0,1,0,0,1,
118548098564,Abbotsford,British Columbia,CA,49.058,-122.2526,0,0,0,0,1,0,0,0,,0,0,0,0,0,0,0,0,0,0,0,0,0,0,1,0,"music, art"
118548096653,Fredericton,New Brunswick,CA,45.9454,-66.6656,0,0,0,0,1,0,0,0,,0,0,0,0,0,0,0,0,1,0,0,0,0,0,0,0,
118548094384,Oakville,Ontario,CA,43.4501,-79.6829,0,0,0,0,0,0,0,1,,1,0,1,0,0,1,0,1,0,0,0,0,0,0,0,0,
118548092397,North Saanich,British Columbia,CA,48.6663,-123.4193,0,0,0,0,1,0,0,0,,0,0,0,0,0,0,0,0,0,0,0,0,0,0,0,1,
118548092225,East Harlem,New York,US,40.7947,-73.9425,0,0,0,0,0,1,1,0,,0,0,0,0,0,0,0,0,1,1,0,0,0,0,0,0,architectural history
118548091774,Mount Pearl,Newfoundland and Labrador,CA,47.5166,-52.7814,0,0,0,0,1,0,0,0,,0,0,0,0,0,0,0,0,1,0,0,0,0,0,0,0,
118548091384,Amsterdam,North Holland,NL,52.374,4.8897,0,0,0,0,1,0,0,0,,0,0,0,0,0,0,0,0,0,0,0,0,0,0,0,0,
118548090929,Montréal,Quebec,CA,45.5005,-73.5684,1,0,0,0,0,0,0,0,,0,0,0,0,0,1,1,1,1,0,0,0,0,0,0,0,
118548090165,Toronto,Ontario,CA,43.7064,-79.3986,0,0,0,0,0,1,0,0,,0,1,1,0,0,0,0,0,1,0,1,0,0,0,1,0,
118548088518,Duncan,British Columbia,CA,48.7829,-123.7027,0,0,0,0,0,0,0,0,vet rcmp,0,0,0,0,0,0,0,0,0,0,0,0,0,0,0,0,?
118548085451,Tecumseh,Ontario,CA,42.3168,-82.8998,0,0,0,0,0,0,0,0,retired rcmp,0,0,0,0,0,0,0,0,0,0,0,0,0,0,0,0,none
118548085349,Charlottetown,Prince Edward Island,CA,46.2346,-63.1256,0,0,0,0,0,0,0,0,retired,0,0,0,0,0,0,0,0,0,0,0,0,1,0,0,1,
118548085068,Cape Coral,Florida,US,26.5629,-81.9495,0,0,0,0,0,0,0,0,retired regular member,0,0,0,0,0,0,0,0,0,0,0,0,0,0,0,0,general interest.  
118548083643,Ottawa,Ontario,CA,45.4677,-75.5399,0,0,0,0,0,0,0,0,rcmp veteran,0,0,0,0,0,0,0,0,1,0,0,0,0,0,0,0,
118548082197,Fallingbrook,Ontario,CA,45.4756,-75.484,0,0,0,0,1,0,0,0,retired rcmp,0,0,0,0,0,0,0,0,1,0,0,0,0,0,1,0,
118548080470,Montréal,Quebec,CA,45.5005,-73.5684,0,0,0,0,1,0,0,0,,0,0,0,0,0,0,0,0,0,0,0,0,0,0,0,0,
118548078499,Missoula,Montana,US,46.8563,-114.0252,1,0,0,0,0,0,0,0,,0,0,0,0,0,1,0,0,0,0,0,0,0,0,0,0,
118548077216,Abbotsford,British Columbia,CA,49.058,-122.2526,0,0,0,0,0,0,0,0,veterans historian vancouver,0,0,0,0,0,0,0,0,1,0,0,0,0,0,0,0,rcmp
118548071456,Vancouver,British Columbia,CA,49.2497,-123.1193,0,0,0,0,1,0,0,0,,0,0,0,0,0,1,0,0,0,0,0,0,0,0,0,0,
118548070802,Kitchener,Ontario,CA,43.3398,-80.2955,0,0,0,0,0,0,0,0,rcmp retired,0,0,0,0,0,0,0,0,1,0,0,0,0,0,0,0,
118548067080,St. John's,Newfoundland and Labrador,CA,47.5649,-52.7093,0,1,0,0,0,0,0,0,,0,0,0,0,0,0,0,0,0,0,0,0,0,0,0,0,
118548062819,Corner Brook,Newfoundland and Labrador,CA,48.95,-57.952,0,0,0,0,0,0,0,0,retired rcmp,0,0,0,0,0,0,0,0,0,0,0,0,0,0,0,0,general knowledge
118548062399,Cornwall,Ontario,CA,45.0181,-74.7281,0,0,0,0,0,0,0,0,retired government worker,0,0,0,0,0,0,0,0,0,0,0,0,1,0,0,0,
118548060889,Ottawa,Ontario,CA,45.4112,-75.6981,0,0,0,0,0,0,0,0,retired rcmp member,0,0,0,0,0,0,0,0,1,0,1,0,0,0,0,0,
118548058964,Cornwall,Ontario,CA,45.0181,-74.7281,0,0,0,1,0,0,0,0,,0,0,0,0,0,0,0,0,0,0,0,0,1,0,0,0,
118548058742,Winnipeg,Manitoba,CA,49.8844,-97.147,0,0,0,0,0,0,1,0,,0,0,0,0,0,0,0,0,1,0,1,0,0,0,0,0,
118548058603,Ottawa,Ontario,CA,45.4112,-75.6981,0,0,0,0,0,0,0,0,retired rcmp ,0,0,0,0,0,0,0,0,0,0,0,0,0,0,0,0,retired rcmp member 
118548058282,Gambo,Newfoundland and Labrador,CA,48.7832,-54.2148,0,0,0,0,0,0,0,0,retired,0,0,0,0,0,0,0,0,1,0,0,0,0,0,0,0,
118548058076,Pictou,Nova Scotia,CA,45.6788,-62.7094,0,0,1,0,0,0,0,0,,0,0,0,0,0,0,0,0,0,0,0,0,1,0,0,0,
118548056466,Ottawa,Ontario,CA,45.4112,-75.6981,0,0,0,0,1,0,0,0,rtd rcmp member,0,0,0,0,0,0,0,0,1,0,0,0,0,0,0,0,
118548056008,Nepean,Ontario,CA,45.3362,-75.7225,0,0,0,0,0,0,0,0,retired rcmp officer,0,0,0,0,0,0,0,0,1,0,0,0,1,0,0,0,
118548054120,Laguna Vista,Texas,US,26.1009,-97.2903,0,0,0,0,1,0,0,0,,0,0,0,0,0,0,0,0,1,0,0,0,0,0,0,0,
118548050445,Port McNeill,British Columbia,CA,50.59,-127.0864,0,0,0,0,1,0,0,0,,0,0,0,0,0,0,0,0,1,0,0,0,0,0,0,0,
118548046004,Vancouver,British Columbia,CA,49.2497,-123.1193,0,0,0,0,0,0,0,0,retired rcmp,0,0,0,0,0,1,0,0,0,0,0,0,0,0,0,0,
118548045998,Penticton,British Columbia,CA,49.4806,-119.5858,0,0,0,0,0,0,0,0,retired rcmp member,0,0,0,0,0,0,0,0,1,0,0,0,0,0,0,0,
118548043181,Halifax,Nova Scotia,CA,44.6427,-63.5769,0,0,0,0,0,0,0,0,rcmp veteran,0,0,0,0,0,0,0,0,0,0,0,0,0,0,0,0,general interest
118548040879,Sherwood Park,Alberta,CA,53.5168,-113.3187,0,0,0,0,0,0,0,0,rcmp veteran,0,0,0,0,0,0,0,0,1,0,0,0,0,0,0,0,
118548039994,Maricopa,Arizona,US,33.0581,-112.0476,0,0,0,0,1,0,0,0,,0,0,0,1,0,1,0,0,1,0,0,1,0,0,0,0,
118548039668,Charlottetown,Prince Edward Island,CA,46.2346,-63.1256,0,0,0,0,1,0,0,0,,0,0,0,0,0,0,0,0,1,0,0,0,0,0,0,0,
118548038296,Regina,Saskatchewan,CA,50.4501,-104.6178,0,0,0,0,1,0,0,0,,0,0,0,0,0,0,0,0,1,0,0,0,0,0,0,0,
118548037774,Abbotsford,British Columbia,CA,49.058,-122.2526,0,0,0,0,1,0,0,0,,0,0,0,0,0,0,0,0,0,0,0,0,0,0,0,0,
118548036987,Tracadie-Sheila,New Brunswick,CA,47.5144,-64.9181,0,0,0,0,0,0,0,0,rcmp retired member,0,0,0,0,0,0,0,0,1,0,1,0,1,0,0,0,
118548035524,Cape Coral,Florida,US,26.5629,-81.9495,0,0,1,0,0,0,0,0,,0,0,0,0,0,0,0,0,0,0,0,0,1,0,0,0,
118548032760,Courtenay,British Columbia,CA,49.6866,-124.9936,0,0,0,0,0,0,0,0,retired rcmp,0,0,0,0,0,0,0,0,1,0,0,0,0,0,0,0,
118548030444,Vancouver,British Columbia,CA,49.2175,-123.038,0,0,0,0,1,0,0,0,retired rcmp,0,0,0,0,0,0,0,0,0,0,0,0,0,0,0,0,
118548028479,Brampton,Ontario,CA,43.6834,-79.7663,1,0,0,0,0,0,0,0,,0,0,0,0,0,1,0,0,1,0,0,0,0,0,0,0,
118548025010,Moncton,New Brunswick,CA,46.0945,-64.7965,0,0,0,0,0,0,0,0,retired government employee,0,0,0,0,0,0,0,0,1,0,0,0,1,0,0,0,
118548024249,Calgary,Alberta,CA,51.0501,-114.0853,0,0,0,0,1,0,0,0,retired rcmp,0,0,0,0,0,0,0,0,0,0,0,0,0,0,0,0,general interest 
118548020173,Red Deer,Alberta,CA,52.2668,-113.802,0,0,0,0,0,0,0,0,retired rcmp officer ,0,0,0,0,0,1,0,0,0,0,1,0,1,0,0,0,
118548014878,Peterborough,Ontario,CA,44.3001,-78.3162,0,0,0,0,0,0,1,0,,0,0,0,0,0,0,0,0,0,0,0,0,0,0,0,0,
118548013093,Halifax,Nova Scotia,CA,44.6427,-63.5769,0,0,0,0,0,0,0,0,retired member,0,0,0,0,0,0,0,0,1,0,0,0,0,0,0,0,
118548012208,Ottawa,Ontario,CA,45.4112,-75.6981,0,0,0,0,0,0,0,0,rcmp veteran,0,0,0,0,0,0,0,0,0,0,0,0,0,0,0,0,rcmp quarterly
118548011260,Toronto,Ontario,CA,43.7064,-79.3986,1,0,1,0,0,0,0,0,,0,0,0,0,0,1,1,0,1,0,0,0,0,0,0,0,
118548009142,Ottawa,Ontario,CA,45.4112,-75.6981,0,0,0,0,1,0,0,0,,0,0,0,0,0,1,0,0,0,0,0,0,1,0,0,1,
118548007922,New Glasgow,Nova Scotia,CA,45.5834,-62.6486,0,0,0,0,0,0,0,0,retired rcmp member ,0,0,0,0,0,0,0,0,1,0,0,0,1,0,0,0,
118548007325,St. John's,Newfoundland and Labrador,CA,47.5649,-52.7093,0,0,0,0,1,0,0,0,,0,0,0,0,0,0,0,0,1,0,0,0,0,0,0,0,
118548006040,Prince Albert,Saskatchewan,CA,53.2001,-105.7677,0,0,0,0,1,0,0,0,,0,0,0,0,0,0,0,0,1,0,0,0,0,0,0,0,
118548005923,Conception Bay South,Newfoundland and Labrador,CA,47.4999,-52.9981,0,0,0,0,1,0,0,0,,0,0,0,0,0,0,0,0,1,0,0,0,0,0,0,0,
118548003103,Regina,Saskatchewan,CA,50.4501,-104.6178,0,0,0,0,1,0,0,0,,0,1,0,0,0,0,0,0,0,0,0,0,0,0,0,0,
118548002997,Ottawa,Ontario,CA,45.4112,-75.6981,0,0,1,0,0,0,0,0,rcmp sergeant major,0,0,0,0,0,0,0,0,0,0,0,0,1,0,0,0,
118548002297,Milton,Ontario,CA,43.5168,-79.8829,0,0,0,0,1,0,0,0,,0,0,0,0,0,0,0,0,1,0,0,0,0,0,0,0,
118548002114,Duncan,British Columbia,CA,48.7829,-123.7027,0,0,0,1,1,0,0,0,,0,0,0,0,0,0,0,0,0,0,0,0,1,0,0,0,
118548001759,Kamloops,British Columbia,CA,50.6665,-120.3192,0,0,0,0,1,0,0,0,,0,0,0,0,0,0,0,0,1,0,0,0,1,0,0,0,
118548000468,Barrie,Ontario,CA,44.3572,-79.6929,0,0,0,0,0,1,1,0,,0,0,0,1,0,0,1,0,0,0,0,0,0,0,0,0,sustainability
118547995852,Toronto,Ontario,CA,43.7678,-79.1866,1,0,0,0,0,0,0,0,,0,0,0,0,0,1,0,0,0,0,0,0,0,0,0,0,
118547995228,Atlanta,Georgia,US,33.749,-84.388,0,0,0,0,1,0,0,0,,0,0,0,0,0,1,0,0,0,0,0,0,0,0,0,0,
118547994631,St. John's,Newfoundland and Labrador,CA,47.5649,-52.7093,0,0,1,0,0,0,0,0,,0,0,0,0,0,0,0,0,0,0,0,0,0,0,0,0,
118547991424,Toronto,Ontario,CA,43.6683,-79.4205,0,0,0,0,1,0,0,0,,0,0,0,0,0,0,0,0,1,0,0,0,0,0,0,0,
118547990221,Perth,Ontario,CA,44.9001,-76.2494,0,0,0,0,1,0,0,0,,0,0,0,0,0,0,0,0,1,0,0,0,0,0,0,0,
118547989899,Vancouver,British Columbia,CA,49.2497,-123.1193,0,0,0,1,0,1,0,0,,0,0,0,0,0,0,0,0,1,0,0,0,1,0,0,0,
118547989085,Calgary,Alberta,CA,51.0501,-114.0853,0,0,0,0,0,0,0,0,retired rcmp,0,0,0,0,0,1,0,0,1,0,0,0,0,0,0,0,
118547988112,Red Deer,Alberta,CA,52.2668,-113.802,0,0,0,0,1,0,0,0,,0,1,0,1,0,0,0,1,1,0,0,1,0,0,0,0,
118547986927,Mississauga,Ontario,CA,43.5789,-79.6583,0,0,0,0,1,0,0,0,,0,0,0,0,0,0,0,0,0,0,0,0,1,0,0,0,
118547985164,Victoria,British Columbia,CA,48.4359,-123.3516,0,0,1,0,1,0,0,0,,0,0,0,0,0,0,0,0,1,0,0,0,0,0,0,1,
118547984714,Halifax,Nova Scotia,CA,44.6427,-63.5769,0,0,0,0,1,0,0,0,,0,0,0,0,0,1,0,0,0,0,0,0,0,0,0,0,
118547983104,Kingston,Ontario,CA,44.2298,-76.481,0,0,0,0,1,0,0,0,,0,0,0,0,0,0,0,0,1,0,0,0,0,0,0,0,
118547983071,Phoenix,Arizona,US,33.4484,-112.074,0,0,0,0,0,0,0,0,rcmp officer,0,0,0,0,0,0,0,0,1,0,0,0,0,0,0,0,
118547980036,Ogdensburg,New York,US,44.6942,-75.4863,0,0,1,0,1,0,0,0,,0,0,0,0,0,0,0,0,0,0,0,0,1,0,0,0,
118547976523,Charlottetown,Prince Edward Island,CA,46.2346,-63.1256,0,0,0,0,0,0,0,0,retired rcmp member,0,0,0,0,0,0,0,0,0,0,0,0,0,0,0,0,
118547976326,Phoenix,Arizona,US,33.4484,-112.074,0,0,0,0,1,0,0,0,,0,0,0,0,0,0,0,0,1,0,0,0,0,0,0,0,
118547975784,Walnut Grove,British Columbia,CA,49.1647,-122.6404,0,0,0,0,0,0,0,0,retired rcmp,0,1,0,0,0,0,0,0,0,0,0,0,0,0,0,0,
118547975561,Kingston,Ontario,CA,44.2298,-76.481,0,0,0,0,1,0,0,0,,0,0,0,0,0,0,0,0,1,0,0,0,0,0,0,0,
118547974774,Calheta,Madeira,PT,32.7275,-17.1789,0,0,1,0,0,0,0,0,,0,0,0,0,0,0,0,0,0,0,0,0,1,0,0,0,
118547974562,Regina,Saskatchewan,CA,50.4501,-104.6178,0,0,1,0,0,0,0,0,,0,0,0,0,0,0,0,0,0,0,0,0,1,0,0,0,
118547974142,Fredericton,New Brunswick,CA,45.9454,-66.6656,0,0,0,0,1,0,0,0,,1,0,0,0,0,0,0,0,0,0,0,0,1,0,0,0,
118547973591,Mississauga,Ontario,CA,43.5789,-79.6583,0,0,0,0,0,0,0,0,retired rcmp officer,0,0,0,0,0,0,0,0,1,0,0,0,1,0,0,0,
118547972415,Toronto,Ontario,CA,43.7064,-79.3986,0,0,0,0,0,0,0,1,,0,0,1,0,0,0,1,0,1,0,0,0,0,0,0,0,
118547971650,Russell,Ontario,CA,45.2501,-75.366,0,0,0,0,0,0,0,0,retired regular member,0,0,0,0,0,0,0,0,0,0,0,0,0,0,0,0,personal interest
118547970377,Leduc,Alberta,CA,53.2668,-113.552,0,0,0,0,1,0,0,0,retired rcmp member,0,0,0,0,0,0,0,0,1,0,0,0,0,0,0,0,
118547969346,Vancouver,British Columbia,CA,49.2497,-123.1193,0,0,0,0,0,0,0,0,member #22690,0,0,0,0,0,0,0,0,1,0,0,0,0,0,0,0,
118547969248,Kingston,Ontario,CA,44.2298,-76.481,0,0,0,0,0,0,0,0,retired rcmp,0,0,0,0,0,0,0,0,1,0,1,0,1,0,1,1,
118547968946,Calgary,Alberta,CA,51.0501,-114.0853,0,0,1,0,0,0,0,0,,0,0,0,0,0,0,0,0,0,0,0,0,1,0,0,0,
118547967627,Vancouver,British Columbia,CA,49.2497,-123.1193,0,0,0,0,1,0,0,0,,0,0,0,0,0,0,0,0,0,0,0,0,0,0,0,0,
118547967133,Harriston,Ontario,CA,43.912,-80.872,0,0,0,0,1,0,0,0,,0,0,0,0,0,0,0,0,0,0,0,0,1,0,0,0,
118547966927,Vancouver,British Columbia,CA,49.2497,-123.1193,0,0,0,0,1,0,0,0,,0,0,0,0,0,0,0,0,0,0,0,0,0,0,0,0,
118547965966,Canmore,Alberta,CA,51.0834,-115.3521,1,0,0,0,1,0,0,0,,0,0,0,0,0,1,0,0,1,0,0,0,0,0,0,0,
118547965543,Ottawa,Ontario,CA,45.4112,-75.6981,0,0,1,0,0,0,0,0,,0,0,0,0,0,0,0,0,1,0,0,0,0,0,0,0,
118547965347,Sherwood Park,Alberta,CA,53.5168,-113.3187,0,0,0,0,0,0,0,0,retired law enforcement officer,0,0,0,0,0,0,0,0,0,0,0,0,1,0,0,0,
118547965197,Conception Bay South,Newfoundland and Labrador,CA,47.4999,-52.9981,0,0,1,0,0,0,0,0,retired,0,0,0,0,0,0,1,0,1,0,0,0,1,0,0,1,
118547953997,Oakville,Ontario,CA,43.4501,-79.6829,1,0,0,0,0,0,0,0,,0,0,0,0,0,1,0,0,0,0,0,0,0,0,0,0,
118547950134,Toronto,Ontario,CA,43.7064,-79.3986,1,0,0,0,0,0,0,0,,0,0,0,0,0,0,0,0,1,0,0,0,0,0,0,0,
118547947827,Winnipeg,Manitoba,CA,49.8844,-97.147,0,0,0,0,0,0,1,0,,0,0,0,1,0,0,0,0,0,0,0,0,0,0,0,0,
118547938423,Waterloo,Ontario,CA,43.4668,-80.5164,0,0,0,0,0,1,0,0,,0,0,0,0,0,0,0,0,1,0,0,0,0,0,0,0,economics
118547918640,Edmonton,Alberta,CA,53.5501,-113.4687,1,0,0,0,0,0,0,0,,0,0,0,0,0,1,0,0,0,0,0,0,0,0,0,0,
118547897488,Toronto,Ontario,CA,43.7064,-79.3986,0,0,0,0,0,1,0,0,,0,0,0,0,0,0,0,0,0,0,0,0,0,0,0,0,mechanical engineering
118547897255,Ladner,British Columbia,CA,49.0894,-123.0824,0,0,0,0,1,0,0,0,,0,0,0,0,0,1,0,0,0,0,0,0,0,0,0,0,
118547879486,Kingston,Ontario,CA,44.2298,-76.481,0,0,0,0,0,0,0,1,retired u professor,0,0,0,0,0,0,0,0,1,0,0,0,0,0,0,0,medicine
118547876701,Guelph,Ontario,CA,43.5459,-80.256,0,0,0,0,0,0,1,0,,0,0,0,0,0,0,0,0,1,0,0,0,0,0,0,0,
118547868886,Toronto,Ontario,CA,43.7064,-79.3986,1,0,0,0,0,0,0,0,,0,0,0,0,0,0,0,0,0,0,0,0,0,0,0,0,
118547856154,Arbutus Ridge,British Columbia,CA,49.2497,-123.1693,0,1,0,0,0,0,0,0,,0,0,0,0,0,0,0,0,0,0,0,0,0,0,0,0,
118547847464,Ottawa,Ontario,CA,45.4112,-75.6981,0,0,0,1,0,0,0,0,,0,0,0,0,0,0,0,0,0,1,1,0,1,0,0,1,
118547836805,Dartmouth,Nova Scotia,CA,44.6713,-63.5772,0,0,0,0,1,0,0,0,,0,0,0,0,0,1,0,0,0,0,0,0,0,0,0,0,
118547807311,Toronto,Ontario,CA,43.7064,-79.3986,0,0,0,0,0,0,1,0,,0,0,1,0,0,0,0,0,0,0,0,0,0,0,0,0,museum studies 
118547771668,Fleischmanns,New York,US,42.1554,-74.5324,1,0,0,0,0,0,0,0,,0,0,0,0,0,1,0,0,0,0,1,0,0,0,0,0,
118547770911,Toronto,Ontario,CA,43.7064,-79.3986,1,0,0,0,0,0,0,0,,0,0,0,0,0,1,0,0,0,0,0,0,0,0,0,0,
118547768010,Winnipeg,Manitoba,CA,49.8844,-97.147,1,0,0,0,0,0,0,0,,0,0,0,0,0,1,0,0,0,0,0,0,0,0,0,0,
118547747374,Moncton,New Brunswick,CA,46.0945,-64.7965,0,0,0,1,0,1,1,0,,0,0,0,0,1,0,0,0,1,1,1,0,1,0,0,1,
118547696796,Moncton,New Brunswick,CA,46.0945,-64.7965,1,0,0,0,0,0,0,0,,0,0,0,0,0,1,0,0,0,0,0,0,0,0,0,0,
118547673271,London,Ontario,CA,42.9834,-81.233,1,0,0,0,0,0,0,0,,0,0,0,0,0,1,0,0,1,0,0,0,0,0,0,0,
118547671326,Miramichi,New Brunswick,CA,47.029,-65.5019,0,0,0,0,1,0,0,0,,0,0,0,0,0,0,0,0,1,0,0,0,0,0,0,0,religion
118547662674,Montréal,Quebec,CA,45.5088,-73.5878,1,0,0,0,1,0,0,0,,0,0,0,0,0,1,0,0,0,0,0,0,0,0,0,0,
118547662266,Ottawa,Ontario,CA,45.4112,-75.6981,0,0,0,0,0,0,0,0,spouse of a member,0,0,0,0,0,1,0,0,0,0,0,0,0,0,0,0,
118547659855,Montréal,Quebec,CA,45.5088,-73.5878,1,0,0,0,0,0,0,0,,0,0,0,0,0,1,0,0,0,0,0,0,0,0,0,0,
118547656893,Milton,Ontario,CA,43.5168,-79.8829,1,0,0,0,0,0,0,0,,0,0,0,0,0,1,0,0,1,0,0,0,0,0,0,0,
118547643733,Ottawa,Ontario,CA,45.4112,-75.6981,0,0,0,0,1,0,0,0,,0,0,0,0,0,0,0,0,1,0,0,0,0,0,0,0,
118547622191,Sinsheim,Baden-Wurttemberg,DE,49.2529,8.8787,0,0,0,0,0,0,0,0,americane de desendance quebequaine,0,0,0,0,0,0,0,0,1,0,0,0,0,0,0,0,
118547599878,Ottawa,Ontario,CA,45.4112,-75.6981,0,0,0,0,1,0,0,0,,0,0,0,0,0,1,0,0,0,0,0,0,0,0,0,0,
118547561307,Tobermory,Ontario,CA,45.2501,-81.6665,0,0,0,0,1,0,0,0,,0,0,0,0,0,0,0,0,0,0,0,0,0,0,0,0,
118547558801,Oakville,Ontario,CA,43.4501,-79.6829,0,0,0,0,1,0,0,0,,0,0,0,0,0,0,1,0,1,0,0,0,0,0,0,0,science
118547511184,Lahore,Punjab,PK,31.558,74.3507,0,0,0,0,0,0,1,0,,0,0,0,0,0,0,0,0,0,0,0,0,0,0,1,0,
118547302963,Lethbridge,Alberta,CA,49.7,-112.8186,0,0,0,0,0,0,1,0,,0,0,0,0,0,0,0,0,1,0,0,0,0,0,0,0,
118547300566,Grand Forks,North Dakota,US,47.9253,-97.0328,1,0,0,0,0,0,0,0,,0,0,1,0,0,1,0,0,1,1,1,0,0,0,0,0,
118547285405,Montréal,Quebec,CA,45.5088,-73.5878,0,0,0,0,0,0,1,0,,0,0,0,0,0,0,0,0,0,0,0,0,0,0,0,1,
118547248825,Regina,Saskatchewan,CA,50.4501,-104.6178,1,0,0,0,0,0,0,0,,0,0,0,0,0,0,0,0,0,0,0,0,0,0,0,0,
118547215696,Abbotsford,British Columbia,CA,49.058,-122.2526,1,0,0,0,0,0,0,0,,0,0,0,0,0,1,0,0,0,0,0,0,0,0,0,0,
118547205858,Perris,California,US,33.7852,-117.3166,0,0,0,0,0,0,1,0,,0,0,0,0,0,0,0,0,0,0,0,0,0,0,1,0,
118547194559,Milwaukee,Wisconsin,US,43.0389,-87.9065,0,0,0,0,1,0,0,0,,0,0,0,0,0,1,0,0,0,0,0,0,0,0,0,0,
118547189362,Mississauga,Ontario,CA,43.5789,-79.6583,0,0,0,0,0,0,1,0,,0,1,0,0,0,0,0,0,0,0,0,0,0,0,0,0,
118547184059,Ottawa,Ontario,CA,45.4112,-75.6981,0,0,0,0,1,0,0,0,,0,0,1,1,0,1,1,0,1,0,1,0,1,1,1,1,
118547174228,Langley,British Columbia,CA,49.1011,-122.6588,1,0,0,0,1,0,0,0,,0,0,0,0,0,1,0,0,1,0,1,0,0,0,0,0,
118547162150,Ottawa,Ontario,CA,45.4112,-75.6981,0,0,0,0,0,0,1,0,,0,0,0,0,0,0,0,0,0,0,0,0,0,0,0,0,
118547161115,Dollard-Des Ormeaux,Quebec,CA,45.4945,-73.8242,0,0,0,0,1,0,0,0,,0,0,0,1,0,0,1,0,1,0,1,0,0,0,0,0,
118547152591,North Cowichan,British Columbia,CA,48.8413,-123.686,1,0,0,0,1,0,0,0,,0,0,0,0,0,1,0,0,0,0,0,0,0,0,0,0,
118547143814,Toronto,Ontario,CA,43.7064,-79.3986,0,0,0,0,0,0,1,0,,0,0,0,0,0,0,0,0,0,0,1,0,0,0,0,0,
118547137048,Alexandria Bay,New York,US,44.3359,-75.9177,0,0,0,0,1,0,0,0,,0,0,0,0,0,1,0,0,0,0,0,0,0,0,0,0,
118547122790,Sault Ste. Marie,Ontario,CA,46.5168,-84.3333,0,0,0,0,1,0,0,0,,0,0,0,0,0,0,0,0,1,0,0,0,0,0,0,0,
118547122623,Edmonton,Alberta,CA,53.5501,-113.4687,0,0,0,0,1,0,0,0,,0,0,0,0,0,0,0,0,1,0,0,0,0,0,0,0,
118547110400,London,Ontario,CA,42.9834,-81.233,1,0,0,0,0,0,0,0,,0,0,0,0,0,1,0,0,0,0,0,0,0,0,0,0,
118547106927,North Vancouver,British Columbia,CA,49.3164,-123.0693,0,0,0,0,1,0,0,0,,0,0,0,0,0,1,0,0,0,0,0,0,0,0,0,0,
118547081395,Vaudreuil-Dorion,Quebec,CA,45.4001,-74.0325,0,0,0,0,1,0,0,0,,0,0,0,0,0,0,0,0,1,0,0,0,0,0,0,0,
118547046760,Palmer,Alaska,US,61.5994,-149.1146,0,0,0,0,1,0,0,0,,0,0,0,0,0,1,0,0,0,0,0,0,0,0,0,0,
118547042781,Toronto,Ontario,CA,43.7064,-79.3986,0,0,0,0,0,0,1,0,,0,0,0,0,0,0,0,0,0,0,0,0,0,0,0,0,
118547033701,Ellison,British Columbia,CA,49.9331,-119.3691,0,0,0,0,0,0,1,0,,0,0,0,0,0,0,0,0,0,0,1,0,0,0,0,0,
118547033684,Dartmouth,Nova Scotia,CA,44.6713,-63.5772,0,0,0,0,0,0,0,0,enfield heritage centre,0,0,0,0,0,0,0,0,1,0,0,0,0,0,0,0,
118547021125,Kelowna,British Columbia,CA,49.8831,-119.4857,0,0,0,0,0,1,0,0,,0,0,0,0,0,0,0,0,1,0,1,0,0,0,0,0,
118546992287,Oshawa,Ontario,CA,43.9001,-78.8496,0,1,0,0,0,0,0,0,,0,0,0,0,0,0,0,0,0,0,0,0,0,0,0,0,
118546965404,Laval,Quebec,CA,45.5699,-73.692,0,0,0,0,0,0,1,0,,0,0,0,1,0,0,0,0,0,0,0,0,0,0,0,0,
118546938979,Kelowna,British Columbia,CA,49.8831,-119.4857,0,0,0,0,0,0,1,0,,0,0,0,0,0,0,0,0,1,0,0,0,0,0,0,0,
118546937651,Fallingbrook,Ontario,CA,45.4756,-75.484,1,0,0,0,0,0,0,0,,0,0,0,0,0,0,0,0,1,0,0,0,0,0,0,0,
118546933290,Kelowna,British Columbia,CA,49.8831,-119.4857,0,0,0,0,0,0,1,0,,0,0,0,0,0,0,0,0,1,0,0,0,0,0,0,0,
118546928711,Toronto,Ontario,CA,43.7064,-79.3986,0,0,0,0,0,0,1,0,,0,0,1,0,0,0,0,0,0,0,0,0,0,0,0,0,
118546926529,Richmond Hill,Ontario,CA,43.8711,-79.4373,1,0,0,0,0,0,0,0,,0,0,0,0,0,1,0,0,0,0,0,0,0,0,0,0,
118546925292,Toronto,Ontario,CA,43.7064,-79.3986,1,0,0,0,0,0,0,0,,0,0,0,0,0,1,0,0,1,1,0,0,0,0,0,0,
118546900170,Vancouver,British Columbia,CA,49.2497,-123.1193,0,0,0,0,0,0,1,0,,0,0,0,0,0,0,0,0,0,0,0,1,0,0,0,0,
118546892018,Culcheth,England,GB,53.4511,-2.521,0,0,0,0,1,0,0,0,,0,0,0,0,0,1,0,0,0,0,0,0,0,0,0,0,
118546892003,Vancouver,British Columbia,CA,49.2497,-123.1193,0,0,0,0,0,0,1,0,,0,0,0,0,0,0,0,0,0,0,0,0,0,0,0,0,
118546857658,Waterloo,Ontario,CA,43.4668,-80.5164,0,0,0,0,0,0,1,0,,0,0,0,0,0,0,0,0,1,0,1,0,0,0,0,1,
118546857644,Abbotsford,British Columbia,CA,49.058,-122.2526,1,0,0,0,1,0,0,0,,0,0,0,0,0,1,0,0,1,0,0,0,0,0,0,0,
118546844966,Courtenay,British Columbia,CA,49.6866,-124.9936,1,0,0,0,0,0,0,0,,0,0,0,0,0,1,0,0,1,0,0,0,0,0,0,0,
118546841425,London,Ontario,CA,42.9834,-81.233,1,0,0,0,1,0,0,0,,0,0,0,0,0,1,0,0,0,0,0,0,0,0,0,0,
118546820580,Victoria,British Columbia,CA,48.4359,-123.3516,0,0,0,0,0,0,0,0,writer,0,0,0,0,0,0,0,0,1,1,0,0,0,0,0,0,
118546819613,Pilot Butte,Saskatchewan,CA,50.4801,-104.4191,1,0,0,0,0,0,0,0,,0,0,0,0,0,1,0,0,0,0,0,0,0,0,0,0,
118546817963,Toronto,Ontario,CA,43.6513,-79.3756,0,0,0,0,0,0,1,0,,1,1,0,0,0,0,0,0,0,0,0,0,0,0,0,0,
118546794365,Calgary,Alberta,CA,51.0501,-114.0853,1,0,0,0,0,0,0,0,,0,0,0,0,0,1,0,0,0,0,0,0,0,0,0,0,
118546790626,Greater Sudbury,Ontario,CA,46.49,-80.99,1,0,0,0,0,0,0,0,,0,0,0,0,0,1,0,0,1,0,0,0,0,0,0,0,
118546789564,Dublin,Leinster,IE,53.3331,-6.2489,1,0,0,0,1,0,0,0,,0,0,0,0,0,1,0,0,1,0,0,0,0,0,1,0,
118546774531,Espanola,Ontario,CA,46.2584,-81.7665,0,0,0,0,1,0,0,0,,0,0,0,0,0,0,0,0,1,0,0,0,0,0,0,0,
118546738646,Ottawa,Ontario,CA,45.4112,-75.6981,1,0,0,0,0,0,0,0,,0,1,0,0,0,1,1,0,1,0,0,0,0,1,0,0,
118546734243,Detroit,Michigan,US,42.3314,-83.0457,1,0,0,0,0,0,0,0,,0,0,0,0,0,1,0,0,0,0,0,0,0,0,0,0,
118546707487,Caloocan City,Metro Manila,PH,14.6495,120.9679,0,0,0,0,0,0,1,0,,0,0,1,0,0,0,0,0,0,0,0,0,0,0,0,0,
118546702801,Toronto,Ontario,CA,43.7064,-79.3986,0,0,0,0,0,1,0,0,,0,1,0,0,0,0,0,0,0,0,0,0,0,0,0,0,
118546694565,Etobicoke,Ontario,CA,43.6442,-79.5699,0,0,0,0,1,0,0,0,,0,0,1,0,0,1,0,0,0,0,1,0,1,0,0,0,
118546692568,Buckingham,Quebec,CA,45.5856,-75.4208,1,0,0,0,0,0,0,0,,0,0,0,0,0,1,0,0,0,0,0,0,0,0,0,0,
118546682537,Calgary,Alberta,CA,51.0501,-114.0853,0,0,0,0,0,0,1,0,,0,0,1,0,0,0,0,0,1,0,0,0,0,0,0,0,
118546664596,Muskego,Wisconsin,US,42.9059,-88.139,0,0,0,0,0,0,0,0,author,0,0,0,0,0,0,0,0,0,0,0,0,0,0,0,0,botanical history
118546639989,Saint-Eustache,Quebec,CA,45.565,-73.9055,1,0,0,0,0,0,0,0,,0,0,0,0,0,1,0,0,0,0,0,0,0,0,0,0,
118546631224,London,Ontario,CA,42.9536,-81.3418,1,0,0,0,1,1,0,0,,0,0,1,0,0,0,0,0,1,0,0,0,0,0,0,0,
118546570002,Toronto,Ontario,CA,43.7064,-79.3986,0,0,0,0,1,0,0,0,,0,0,1,1,0,1,1,0,1,0,0,0,0,0,0,0,
118546562022,Toronto,Ontario,CA,43.7064,-79.3986,0,1,0,0,0,0,0,0,,0,0,0,0,0,0,0,0,0,0,0,0,0,0,0,0,religion
118546559024,Regina,Saskatchewan,CA,50.4501,-104.6178,0,0,0,0,0,0,0,1,,0,0,0,0,0,0,0,0,1,0,0,0,0,0,0,0,
118546549765,Toronto,Ontario,CA,43.7064,-79.3986,0,0,0,0,0,1,1,0,,0,0,1,0,0,0,0,0,1,0,0,0,0,0,0,0,
118546528168,Paris,Île-de-France,FR,48.8534,2.3488,0,0,0,1,0,0,0,0,,0,0,0,0,0,0,0,0,1,0,0,0,0,0,0,0,
118546523310,Ottawa,Ontario,CA,45.4112,-75.6981,0,0,0,0,0,0,1,0,,0,0,0,0,0,0,0,0,1,0,0,0,0,0,0,0,
118546501872,Sherbrooke,Quebec,CA,45.3656,-71.842,0,0,0,0,0,0,1,0,,0,0,0,0,0,0,0,0,0,0,0,0,0,0,0,0,
118546478923,Taunton,Massachusetts,US,41.9001,-71.0898,1,0,0,0,0,0,0,0,auction house consultant,0,0,0,0,0,0,0,0,1,0,0,0,0,0,0,0,
118546474306,Greater Sudbury,Ontario,CA,46.49,-80.99,0,0,0,0,0,1,0,0,,0,0,0,0,0,0,0,0,1,0,0,0,0,0,0,0,
118546469717,Fredericton,New Brunswick,CA,45.9454,-66.6656,0,0,0,0,0,1,0,0,,0,0,0,0,0,0,0,0,1,1,0,0,1,0,0,0,
118546468467,St. Catharines,Ontario,CA,43.1419,-79.2966,1,0,0,0,0,0,0,0,,0,0,0,0,0,1,0,0,0,0,0,0,0,0,0,0,
118546463952,Cornwall,Ontario,CA,45.0181,-74.7281,0,0,0,1,0,0,0,0,,0,0,0,0,0,1,0,0,1,1,1,0,0,0,0,0,military history
118546462621,Toronto,Ontario,CA,43.7064,-79.3986,0,0,0,0,0,0,1,0,,0,0,1,0,0,0,0,0,0,0,0,0,0,0,0,0,
118546454293,Toronto,Ontario,CA,43.7064,-79.3986,0,0,0,0,1,1,0,0,,0,0,0,0,0,0,0,0,1,0,0,0,0,0,0,0,
118546445840,Saint John,New Brunswick,CA,45.2708,-66.0562,1,0,0,0,0,0,0,0,,0,0,0,0,0,1,0,0,1,0,0,0,0,0,0,0,
118546428524,Nepean,Ontario,CA,45.3362,-75.7225,0,0,0,0,1,0,0,0,,0,0,0,0,0,0,0,0,1,0,0,0,0,0,0,0,
118546411107,Haiphong,Haiphong,VN,20.8648,106.6834,0,0,0,0,0,0,1,0,,0,0,0,0,0,0,0,0,1,0,0,0,0,0,0,0,
118546390524,Pembroke,Ontario,CA,45.8168,-77.1162,0,0,0,0,1,0,0,0,,0,0,0,0,0,1,0,0,0,0,0,0,0,0,0,0,
118546390093,North Port,Florida,US,27.0442,-82.2359,1,0,0,0,0,0,0,0,,0,0,0,0,0,1,0,0,0,0,0,0,0,0,0,0,
118546338744,Giza,Giza,EG,30.0094,31.2086,0,0,0,0,0,0,0,1,,0,0,0,0,0,0,0,0,1,0,0,0,0,0,0,0,
118546200604,Kitchener,Ontario,CA,43.4254,-80.5112,0,0,0,0,0,0,1,0,,0,0,0,0,0,0,0,0,1,0,0,0,0,0,0,0,
118546178738,Cairo,Cairo,EG,30.0626,31.2497,0,0,0,0,0,0,1,0,,0,0,0,0,0,0,0,0,1,0,0,0,0,0,0,0,
118546125451,Fredericton,New Brunswick,CA,45.9454,-66.6656,1,0,0,0,0,0,0,0,,0,0,0,0,0,1,0,0,1,0,0,0,0,0,0,0,
118546109787,Toronto,Ontario,CA,43.7064,-79.3986,0,0,0,0,1,0,0,0,,0,0,0,0,0,0,1,0,1,0,0,0,0,0,0,0,
118546106411,Toronto,Ontario,CA,43.7064,-79.3986,1,0,0,0,0,0,0,0,,0,0,0,0,0,1,0,0,0,0,0,0,0,0,0,0,
118546104085,Regina,Saskatchewan,CA,50.4501,-104.6178,1,0,0,0,0,0,0,0,,0,0,0,0,0,0,0,0,0,0,0,0,0,0,0,0,
118546101269,Sooke,British Columbia,CA,48.3746,-123.7276,1,0,0,0,1,0,0,0,,0,0,0,0,0,1,1,0,1,0,0,0,0,0,0,0,
118546094292,Toronto,Ontario,CA,43.7064,-79.3986,0,1,0,0,0,0,0,0,,0,0,0,0,0,0,0,0,0,0,0,0,0,0,0,0,
118546092305,Toronto,Ontario,CA,43.7064,-79.3986,1,0,0,0,0,0,0,0,,0,0,0,0,0,1,0,0,0,0,0,0,0,0,0,0,
118546081484,Helsinki,Uusimaa,FI,60.1794,24.9226,0,0,0,0,1,0,0,0,,0,0,0,0,0,1,0,0,0,0,0,0,0,0,0,0,
118546074869,London,Ontario,CA,42.9834,-81.233,1,0,0,0,0,0,0,0,,0,0,0,0,0,1,0,0,0,0,0,0,0,0,0,0,
118546066981,Toronto,Ontario,CA,43.7064,-79.3986,0,0,0,0,0,0,1,0,,0,0,1,0,0,0,0,0,0,0,0,0,0,0,0,0,
118546054546,New Hamburg,Ontario,CA,43.3834,-80.6997,1,0,0,0,1,0,0,0,,0,0,0,0,0,1,0,0,1,0,0,0,0,0,0,0,
118546048905,New Maryland,New Brunswick,CA,45.8119,-66.6763,0,0,0,0,0,0,1,0,,0,0,0,0,0,0,0,0,0,0,0,0,0,0,0,0,
118546045730,Mississauga,Ontario,CA,43.5789,-79.6583,1,0,0,0,0,0,0,0,,0,0,0,0,0,1,0,0,0,0,0,0,0,0,0,0,
118546034506,Montréal,Quebec,CA,45.5088,-73.5878,1,0,0,0,0,0,0,0,retired government of canada employee,0,0,0,0,0,1,0,0,1,0,0,0,0,0,0,0,early census and demographics
118546032947,Burlington,Wisconsin,US,42.6781,-88.2762,1,0,0,0,0,0,0,0,,0,0,0,0,0,1,0,0,0,0,0,0,0,0,0,0,
118546019489,Toronto,Ontario,CA,43.7064,-79.3986,0,0,0,0,1,0,0,0,,0,0,0,0,0,1,1,1,1,0,0,1,0,1,1,0,
118546004966,Montréal,Quebec,CA,45.5088,-73.5878,0,0,0,0,1,0,0,0,,0,0,0,0,0,0,0,0,0,0,1,0,0,0,0,0,
118545993191,Arbutus Ridge,British Columbia,CA,49.2497,-123.1693,0,0,0,0,1,0,0,0,,1,1,1,1,1,1,1,1,1,1,1,1,1,1,1,1,
118545984577,Toronto,Ontario,CA,43.7064,-79.3986,0,0,0,0,1,0,0,0,,0,0,0,0,0,0,0,0,1,0,0,0,0,0,0,0,
118545984081,Peoria,Illinois,US,40.6936,-89.589,0,0,0,0,1,0,0,0,,0,0,0,0,0,0,0,0,1,0,0,0,0,0,0,0,
118545979473,Summerside,Prince Edward Island,CA,46.3912,-63.7887,0,0,0,0,1,0,0,0,textile interest,0,0,0,0,0,0,0,0,1,0,0,0,0,0,0,0,
118545977912,West Kelowna,British Columbia,CA,49.8625,-119.5833,1,0,0,0,0,0,0,0,,0,0,0,0,0,1,0,0,0,0,0,0,0,0,0,0,
118545967930,Toronto,Ontario,CA,43.7064,-79.3986,0,0,0,0,0,1,0,0,,0,0,0,0,0,0,0,0,0,0,0,0,0,0,0,0,
118545958183,Stonegate,Colorado,US,39.5308,-104.8039,0,0,0,0,1,0,0,0,,0,0,1,0,0,1,0,0,0,0,0,0,0,0,0,0,
118545950467,Edmonton,Alberta,CA,53.5931,-113.4077,0,0,1,0,0,0,0,0,,0,0,0,0,0,0,0,0,0,0,0,0,1,0,0,0,
118545917529,Kamloops,British Columbia,CA,50.6665,-120.3192,0,0,0,0,0,0,1,0,,0,0,0,0,0,0,0,0,0,0,0,0,0,0,0,0,library  information & technology
118545917465,L'Ange-Gardien,Quebec,CA,46.9198,-71.0825,0,0,0,0,1,1,0,0,,0,0,0,0,0,0,0,0,1,0,0,0,0,0,0,0,
118545917006,Saskatoon,Saskatchewan,CA,52.1324,-106.6689,0,0,0,0,0,0,1,0,,0,0,1,0,0,0,0,0,0,0,0,0,0,0,0,0,
118545912999,Toronto,Ontario,CA,43.7064,-79.3986,1,0,0,0,0,0,0,0,,0,0,0,0,0,1,0,0,0,0,0,0,0,0,0,0,
118545910596,Magog,Quebec,CA,45.2668,-72.1491,0,0,0,0,1,0,0,0,,0,0,0,0,0,0,0,0,1,0,0,0,0,0,0,0,
118545899327,Calgary,Alberta,CA,51.0501,-114.0853,0,0,0,0,0,0,0,0,freelance writer and historian,0,0,0,0,0,0,0,0,1,0,0,0,0,0,0,0,
118545891738,Halifax,Nova Scotia,CA,44.6427,-63.5769,1,0,0,0,0,0,0,0,,0,0,0,0,0,1,0,0,0,0,0,0,0,0,0,0,
118545887942,Ottawa,Ontario,CA,45.4112,-75.6981,1,0,0,0,1,0,0,0,,0,0,0,0,0,1,0,0,0,0,1,1,0,0,0,0,
118545885245,Sunny Corner,New Brunswick,CA,46.9334,-65.8154,0,0,0,0,0,0,0,0,,0,0,0,0,0,1,0,0,0,0,0,0,0,0,0,0,
118545872856,Ottawa,Ontario,CA,45.4112,-75.6981,0,0,0,0,1,0,0,0,,0,0,0,0,0,0,0,0,1,0,0,0,0,0,0,0,
118545854126,Ottawa,Ontario,CA,45.4112,-75.6981,1,0,0,0,0,0,0,0,,0,0,0,0,0,1,0,0,0,0,0,0,0,0,0,0,
118545852563,Toronto,Ontario,CA,43.7064,-79.3986,1,0,0,0,0,0,0,0,historian,0,0,0,0,0,1,1,0,1,0,0,0,0,1,0,0,
118545834036,Indianapolis,Indiana,US,39.7684,-86.158,1,0,0,0,0,0,0,0,,0,0,0,0,0,1,0,0,1,0,0,0,0,0,0,0,
118545821330,Sooke,British Columbia,CA,48.3746,-123.7276,0,0,1,0,0,0,0,0,,0,0,0,0,0,0,0,0,0,0,1,0,0,0,0,0,
118545810816,Barrie,Ontario,CA,44.4001,-79.6663,0,1,0,0,0,0,0,0,,0,0,0,0,0,0,0,0,1,0,0,0,0,0,0,0,
118545809383,Richmond Hill,Ontario,CA,43.8711,-79.4373,0,0,0,0,0,0,0,1,,0,0,1,0,0,0,0,0,1,0,1,1,0,0,0,0,
118545796010,Toronto,Ontario,CA,43.7064,-79.3986,0,0,0,0,1,0,0,0,,0,0,0,0,0,0,0,0,0,0,0,0,0,0,0,0,
118545794507,Montréal,Quebec,CA,45.5088,-73.5878,1,0,0,0,0,0,0,0,,0,0,0,0,0,1,0,0,0,0,0,0,0,0,0,0,
118545793080,Toronto,Ontario,CA,43.7064,-79.3986,0,0,0,0,0,1,0,0,,0,0,0,0,0,0,0,0,0,0,0,1,0,0,0,0,
118545781747,Calgary,Alberta,CA,51.0501,-114.0853,0,0,0,0,1,0,0,0,,0,0,0,0,0,0,0,0,0,1,0,0,0,0,0,0,
118545781131,Winnipeg,Manitoba,CA,49.8844,-97.147,0,0,0,0,0,1,0,0,,0,0,0,0,0,0,0,0,1,0,0,0,0,0,0,0,
118545770515,Calgary,Alberta,CA,51.0501,-114.0853,1,0,0,0,0,0,0,0,,0,0,0,0,0,1,0,0,1,0,0,0,0,0,0,0,
118545768598,Norfolk County,Ontario,CA,42.8334,-80.383,1,0,0,0,0,0,0,0,,0,0,0,0,0,1,0,0,0,0,0,0,0,0,0,0,
118545767175,Edmonton,Alberta,CA,53.5501,-113.4687,0,0,0,0,0,0,0,1,,0,0,0,0,0,0,0,0,0,0,0,0,0,0,0,1,
118545750983,Surrey,British Columbia,CA,49.1063,-122.8251,1,0,0,0,1,0,0,0,,0,0,0,0,0,1,1,0,1,0,0,0,0,0,0,0,
118545750643,Halifax,Nova Scotia,CA,44.6344,-63.5822,0,0,0,0,0,0,1,0,,0,0,0,0,0,0,1,0,0,0,0,0,0,0,0,0,
118545743112,Orillia,Ontario,CA,44.6087,-79.4207,0,0,0,0,1,0,0,0,,0,0,0,0,0,0,0,0,0,0,0,0,0,0,0,0,
118545740019,Halifax,Nova Scotia,CA,44.662,-63.6017,0,0,0,0,0,0,1,0,,0,0,0,0,0,0,0,0,1,0,0,0,0,0,0,0,
118545731355,Toronto,Ontario,CA,43.7064,-79.3986,0,0,0,0,1,0,0,0,,0,0,1,0,0,0,0,0,1,0,0,0,0,0,0,0,
118545702760,Fergus,Ontario,CA,43.706,-80.3776,1,0,0,0,0,0,0,0,,0,0,0,0,0,1,0,0,0,0,0,0,0,0,0,0,
118545697135,Ajax,Ontario,CA,43.8501,-79.0329,1,0,0,0,0,0,0,0,,0,0,0,0,0,1,0,0,0,0,0,0,0,0,0,0,
118545686766,Vancouver,British Columbia,CA,49.2833,-123.1298,1,0,0,0,0,0,0,0,,0,0,0,0,0,1,0,0,0,0,0,0,0,0,0,0,
118545675809,Belleville,Ontario,CA,44.1668,-77.3828,0,0,0,1,0,0,0,0,,0,0,0,0,0,0,0,0,0,0,0,0,1,0,0,0,
118545636431,Stonegate,Colorado,US,39.5308,-104.8039,0,0,0,0,1,0,0,0,,0,0,1,0,0,1,0,0,0,0,0,0,0,0,0,0,
118545616872,Ottawa,Ontario,CA,45.4112,-75.6981,1,0,0,0,0,0,0,0,,0,0,0,0,0,1,0,0,0,0,0,0,0,0,0,0,
118545606907,Winnipeg,Manitoba,CA,49.8844,-97.147,1,0,0,0,0,0,0,0,,0,0,0,0,0,1,0,0,1,0,0,0,0,0,0,0,
118545585909,Peterborough,Ontario,CA,44.3001,-78.3162,0,0,0,0,0,0,1,0,,0,0,0,0,0,0,0,0,1,0,0,0,0,0,0,0,
118545582696,Pueblo,Colorado,US,38.2544,-104.6091,0,0,0,0,0,0,0,1,,0,0,0,0,0,0,1,0,1,0,0,0,0,0,0,0,
118545579497,Winnipeg,Manitoba,CA,49.8844,-97.147,0,1,0,0,0,0,0,0,,0,0,0,0,0,0,0,0,1,0,0,0,0,0,0,0,
118545578328,Ottawa,Ontario,CA,45.4112,-75.6981,1,0,0,0,1,0,0,0,,0,0,0,0,0,1,0,0,0,0,0,0,0,0,0,0,
118545571505,Vancouver,British Columbia,CA,49.2497,-123.1193,0,0,0,0,1,0,0,0,,0,0,0,0,0,0,0,0,1,0,0,0,0,0,0,0,
118545567783,Nanaimo,British Columbia,CA,49.1664,-123.94,0,0,1,0,1,0,0,0,,0,0,0,1,0,0,0,0,1,0,0,0,0,0,0,0,
118545559046,Calgary,Alberta,CA,51.0501,-114.0853,0,0,0,0,0,0,1,0,,0,0,0,0,0,0,0,0,1,0,0,0,0,0,0,0,
118545551923,London,Ontario,CA,42.9834,-81.233,0,0,0,0,0,0,1,0,,0,0,0,0,0,0,0,0,0,0,0,0,1,0,0,0,
118545530367,Panama City,Colón,PA,9.334,-79.8917,0,0,0,0,0,0,0,0,san blas,0,0,0,0,0,0,0,0,0,0,0,0,0,0,0,0,
118545526311,Escondido,California,US,33.1192,-117.0864,0,0,0,0,1,1,0,0,,0,0,0,0,0,0,1,0,1,0,0,0,0,1,1,1,
118545492239,Toronto,Ontario,CA,43.7064,-79.3986,0,0,0,0,0,0,1,0,,0,0,0,0,0,0,0,0,1,0,0,0,0,0,0,0,
118545491344,Toronto,Ontario,CA,43.7064,-79.3986,1,0,0,0,1,0,0,0,writer,0,1,0,0,0,1,0,0,1,0,0,0,0,0,1,0,
118545490630,Montréal,Quebec,CA,45.5088,-73.5878,0,0,0,0,0,0,1,0,,0,0,0,0,0,0,0,1,0,0,0,0,0,0,0,0,
118545430799,Greater Sudbury,Ontario,CA,46.49,-80.99,0,0,0,0,1,0,0,0,,0,0,0,0,0,1,0,0,0,0,0,0,0,0,0,0,
118545426557,Vaughan,Ontario,CA,43.8361,-79.4983,0,0,0,0,0,1,0,0,,0,0,0,0,0,0,0,0,0,0,0,0,0,0,0,1,
118545420705,St. John's,Newfoundland and Labrador,CA,47.5649,-52.7093,0,0,0,0,0,1,0,0,,0,0,0,0,0,0,0,0,0,0,1,0,0,0,0,0,
118545362509,Toronto,Ontario,CA,43.7064,-79.3986,1,0,0,0,0,0,0,0,,0,0,0,0,0,1,0,0,0,0,0,0,0,0,0,0,
118545347597,London,England,GB,51.5012,-0.0986,1,0,0,0,0,0,0,0,,0,0,0,0,0,0,0,0,1,0,0,0,0,0,0,0,
118545324778,Istanbul,Istanbul,TR,41.0138,28.9497,0,0,0,0,0,0,0,1,,0,0,0,0,0,0,0,0,1,0,0,0,0,0,0,0,
118545219049,Vancouver,British Columbia,CA,49.2819,-123.119,0,0,0,0,0,0,1,0,,0,0,0,0,0,0,0,0,1,1,1,0,0,0,0,0,
118545200176,Faisalabad,Punjab,PK,31.4155,73.0897,0,0,0,0,0,1,0,0,,0,0,0,0,0,0,0,0,1,0,0,0,0,0,0,0,
118545179546,South Huron,Ontario,CA,43.3168,-81.5165,1,0,0,0,1,0,0,0,,0,0,0,0,0,0,0,0,1,0,0,0,0,0,0,0,
118545176360,Tofino,British Columbia,CA,49.1531,-125.9074,1,0,0,0,0,0,0,0,,0,0,0,0,0,1,1,0,1,0,0,0,0,0,0,0,
118545170234,Regina,Saskatchewan,CA,50.4501,-104.6178,1,0,0,0,0,0,0,0,,0,0,0,0,0,0,0,0,0,0,0,0,0,0,0,0,
118545166646,Wasaga Beach,Ontario,CA,44.5168,-80.0164,0,0,0,0,1,0,0,0,,0,0,0,0,0,0,0,0,0,0,0,0,0,0,0,0,
118545163417,Richmond,British Columbia,CA,49.17,-123.1368,1,0,0,0,0,0,0,0,,0,0,0,0,0,1,0,0,0,0,0,0,0,0,0,0,
118545157168,Gibsons,British Columbia,CA,49.3954,-123.5055,0,0,0,0,1,0,0,0,,0,0,0,0,0,1,0,0,0,0,0,0,0,0,0,0,
118545145399,Pittsburgh,Pennsylvania,US,40.4406,-79.9959,1,0,0,0,0,0,0,0,,0,0,0,0,0,1,0,0,0,0,0,0,0,0,0,0,
118545139927,Toronto,Ontario,CA,43.7064,-79.3986,1,0,0,0,0,0,0,0,,0,0,0,0,0,1,0,0,0,0,0,0,0,0,0,0,
118545138008,Cedar Rapids,Iowa,US,42.0083,-91.6441,1,0,0,0,0,0,0,0,,0,0,0,0,0,1,0,0,1,0,0,0,0,0,0,0,
118545122660,White Rock,British Columbia,CA,49.0205,-122.7951,1,0,0,0,1,0,0,0,,1,0,0,0,0,1,1,0,1,0,0,0,0,0,0,0,
118545092833,Calgary,Alberta,CA,51.0501,-114.0853,0,0,0,0,1,0,0,0,,0,0,0,0,0,0,0,0,1,0,0,0,0,0,0,0,
118545087722,Toronto,Ontario,CA,43.7064,-79.3986,1,0,0,0,0,0,0,0,,0,0,0,0,0,1,0,0,1,0,0,0,0,0,0,0,
118545083711,Newmarket,Ontario,CA,44.0501,-79.4663,1,0,0,0,0,0,0,0,,0,0,0,0,0,1,0,0,1,0,0,0,0,0,0,0,
118545079258,Kemptville,Ontario,CA,45.0168,-75.641,1,0,0,0,0,0,0,0,,0,0,0,0,0,0,0,0,1,0,0,0,0,0,0,0,
118545071317,Oshawa,Ontario,CA,43.9001,-78.8496,1,0,0,0,0,0,0,0,,0,0,0,0,0,1,0,0,0,0,0,0,0,0,0,0,
118545068979,Tokyo,Tokyo,JP,35.6895,139.6917,0,1,0,0,0,0,0,0,,0,0,0,0,0,0,0,0,0,0,0,0,0,0,0,0,
118545067080,Fredericton,New Brunswick,CA,45.9454,-66.6656,0,0,0,0,0,0,1,0,,0,0,0,0,0,0,0,0,1,0,0,0,0,0,0,0,
118545066731,St. Catharines,Ontario,CA,43.1713,-79.2427,1,0,0,0,1,0,0,0,,0,0,0,0,0,1,0,0,0,0,0,0,0,0,0,0,
118545061522,Cranbrook,British Columbia,CA,49.4999,-115.7688,1,0,0,0,0,0,0,0,,0,0,0,0,0,1,0,0,0,0,0,0,0,0,0,0,
118545060740,Norfolk County,Ontario,CA,42.8334,-80.383,1,0,0,0,0,0,0,0,,0,0,0,0,0,1,0,0,0,0,0,0,0,0,0,0,
118545060589,Ottawa,Ontario,CA,45.4112,-75.6981,1,0,0,0,0,1,0,1,,0,0,0,0,0,1,0,0,1,0,0,0,1,0,1,0,
118545060025,Lively,Ontario,CA,46.4334,-81.1497,1,0,0,0,0,0,0,0,,0,0,0,0,0,1,0,0,0,0,0,0,0,0,0,0,
118545059603,Ottawa,Ontario,CA,45.4112,-75.6981,0,0,0,0,1,0,0,0,my own family genealogy ,0,0,0,0,0,1,0,0,0,1,0,0,0,0,0,0,
118545059518,Greater Sudbury,Ontario,CA,46.49,-80.99,1,0,0,0,0,0,0,0,,0,0,0,0,0,1,0,0,0,0,0,0,0,0,0,0,
118545056718,Espanola,Ontario,CA,46.2584,-81.7665,1,0,0,0,0,0,0,0,,0,0,0,0,0,1,1,1,0,0,0,0,0,0,0,0,
118545055402,Solon,Maine,US,44.9495,-69.8584,1,0,0,0,0,0,0,0,,0,0,0,0,0,1,0,0,0,0,0,0,0,0,0,0,
118545053729,Alexandria Bay,New York,US,44.3359,-75.9177,0,0,0,0,1,0,0,0,,0,0,0,0,0,1,0,0,1,0,0,0,0,0,1,0,
118545051162,Toronto,Ontario,CA,43.7064,-79.3986,1,0,0,0,0,0,0,0,,0,0,0,0,0,1,0,0,0,0,0,0,0,0,0,0,
118545050822,Toronto,Ontario,CA,43.7064,-79.3986,0,0,0,0,0,0,1,0,,0,0,0,0,0,0,0,0,1,0,0,0,0,0,0,0,
118545049505,Niagara Falls,Ontario,CA,43.1001,-79.0663,1,0,0,0,0,0,0,0,,0,0,0,0,0,1,0,0,0,0,0,0,0,0,0,0,
118545047721,New York City,New York,US,40.7143,-74.006,1,0,0,0,0,0,0,0,,0,0,0,0,0,1,0,0,0,0,0,0,0,0,0,0,
118545042300,Ottawa,Ontario,CA,45.4112,-75.6981,1,0,0,0,0,0,0,0,,0,0,0,0,0,0,0,0,1,0,0,0,0,0,0,0,
118545040189,Ottawa,Ontario,CA,45.4112,-75.6981,1,0,0,0,0,0,0,0,,0,0,0,0,0,1,0,0,0,0,0,0,0,0,0,0,
118545036567,Toms River,New Jersey,US,39.9537,-74.1979,1,0,0,0,1,0,0,1,,0,0,0,0,0,1,0,0,0,0,0,0,0,0,0,0,
118545031641,Greater Sudbury,Ontario,CA,46.49,-80.99,1,0,0,0,0,0,0,0,,0,0,0,0,0,1,0,0,1,0,0,0,0,0,0,0,
118545029646,New York City,New York,US,40.7143,-74.006,1,0,0,0,0,0,0,0,,0,0,0,0,0,1,0,0,0,0,0,0,0,0,0,0,
118545027761,Etobicoke,Ontario,CA,43.6442,-79.5699,0,0,0,0,1,0,0,0,,0,0,0,0,0,0,0,0,0,0,0,0,0,0,0,0,old town post offices and postal history
118545027550,Hanover,Ontario,CA,44.1501,-81.033,1,0,0,0,0,0,0,0,,0,0,0,0,0,1,1,0,1,0,0,0,0,0,0,0,
118545026925,Owen Sound,Ontario,CA,44.5672,-80.9435,1,0,0,0,0,0,0,0,,0,0,0,0,0,1,0,0,0,0,0,0,0,0,0,0,
118545026791,Toronto,Ontario,CA,43.7064,-79.3986,1,0,0,0,0,0,0,0,,0,0,0,0,0,1,0,0,0,0,0,0,0,0,0,0,
118545024306,Toronto,Ontario,CA,43.7064,-79.3986,0,0,0,0,0,0,1,0,,0,0,0,0,0,0,0,0,1,0,0,0,0,0,0,0,
118545015206,Oshawa,Ontario,CA,43.9001,-78.8496,1,0,0,0,0,0,0,0,,0,0,0,0,0,1,0,0,0,0,0,0,0,0,0,0,
118545010693,Fort St. John,British Columbia,CA,56.2499,-120.8529,0,0,0,0,0,0,1,0,,0,0,0,0,0,0,0,0,1,0,0,0,0,0,0,0,
118545004965,Detroit,Michigan,US,42.3314,-83.0457,1,0,0,0,0,0,0,0,,0,0,0,0,0,1,0,0,0,0,0,0,0,0,0,0,
118544992412,Highland Lake,New Jersey,US,41.1768,-74.4565,1,0,0,0,0,0,0,0,,0,0,0,0,0,1,0,0,0,0,0,0,0,0,0,0,
118544981498,Toronto,Ontario,CA,43.7064,-79.3986,0,0,0,0,0,1,0,0,,0,0,0,0,0,0,0,0,1,0,1,0,0,0,0,0,material culture
118544980970,Mississauga,Ontario,CA,43.5789,-79.6583,0,0,0,0,0,1,0,0,,0,0,0,0,1,0,0,1,1,0,0,0,1,0,0,0,human resources
118544971923,Montréal,Quebec,CA,45.5088,-73.5878,0,0,0,0,0,0,1,0,,0,0,0,0,0,0,0,0,1,0,0,0,0,0,0,0,
118544962335,Toronto,Ontario,CA,43.7064,-79.3986,0,0,0,0,1,0,0,0,,0,0,0,0,0,0,0,0,0,0,0,0,1,0,0,0,
118544934201,Toronto,Ontario,CA,43.7064,-79.3986,0,0,0,0,0,0,1,0,,0,0,0,0,0,0,0,0,0,0,1,0,0,0,0,0,
118544928282,Indianapolis,Indiana,US,39.7684,-86.158,1,0,0,0,0,0,0,0,,0,0,0,0,0,1,0,0,0,0,0,0,0,0,0,0,
118544927161,Toronto,Ontario,CA,43.7064,-79.3986,0,1,0,0,0,0,0,0,,0,0,0,0,0,0,0,0,1,0,0,0,0,0,0,0,
118544923605,Durham,North Carolina,US,35.9781,-78.8439,1,0,0,0,0,0,0,0,,0,0,0,0,0,1,0,0,0,0,0,0,0,0,0,0,
118544922102,Victor,Montana,US,46.4166,-114.1501,0,0,0,0,1,0,0,0,,0,0,0,0,0,1,0,0,0,0,0,0,0,0,0,0,
118544920396,New York City,New York,US,40.7143,-74.006,0,0,1,0,0,0,0,0,,0,0,0,0,0,0,0,0,1,0,0,0,0,0,0,0,
118544907978,Calgary,Alberta,CA,51.0501,-114.0853,1,0,0,0,0,0,0,0,,0,0,0,0,0,0,0,0,0,0,0,0,0,0,0,0,
118544904796,Lewiston,Idaho,US,46.4166,-117.0177,1,0,0,0,0,0,0,0,,0,0,0,0,0,1,0,0,0,0,0,0,0,0,0,0,
118544904452,Sherwood Park,Alberta,CA,53.5168,-113.3187,1,0,0,0,0,0,0,0,,0,0,0,0,0,1,0,0,1,0,0,0,0,0,0,0,
118544894940,Seattle,Washington,US,47.6062,-122.3321,1,0,0,0,0,0,0,0,,0,0,0,0,0,1,0,0,0,0,0,0,0,0,0,0,
118544885582,Toronto,Ontario,CA,43.5637,-79.7202,0,0,0,0,1,0,0,0,,0,0,0,0,0,1,0,0,1,0,0,0,0,0,0,0,
118544880302,Calgary,Alberta,CA,51.0501,-114.0853,0,0,0,0,0,0,1,0,,0,0,0,0,0,0,0,0,0,0,0,0,0,0,0,0,english
118544878344,Ottawa,Ontario,CA,45.4112,-75.6981,0,1,0,0,0,0,0,0,,0,0,0,0,0,0,0,0,1,0,0,0,0,0,0,0,
118544870907,Cobourg,Ontario,CA,43.9598,-78.1651,1,0,0,0,1,0,0,0,,0,0,0,0,0,1,1,0,1,0,0,0,0,0,0,0,
118544867102,Rosenberg,Texas,US,29.5572,-95.8086,1,0,0,0,0,0,0,0,,0,0,0,0,0,1,1,0,1,0,0,0,0,0,0,0,
118544864877,Montréal,Quebec,CA,45.5088,-73.5878,0,0,0,0,0,1,0,0,,0,0,0,0,0,0,1,0,1,0,0,0,0,0,1,0,
118544856879,Ottawa,Ontario,CA,45.4112,-75.6981,0,1,0,0,0,0,0,0,,0,0,0,0,0,0,0,0,0,0,0,0,0,0,0,0,
118544842298,Toronto,Ontario,CA,43.7064,-79.3986,1,0,0,0,0,0,0,0,,0,0,0,0,0,0,0,0,1,0,0,0,0,0,0,0,
118544829886,Birmingham,England,GB,52.4814,-1.8998,1,0,0,0,0,0,0,0,,0,0,0,0,0,1,0,0,0,0,0,0,0,0,0,0,
118544827501,Edmonton,Alberta,CA,53.5501,-113.4687,1,0,0,0,0,0,0,0,,0,0,0,0,0,1,0,0,0,0,0,0,0,0,0,0,
118544825789,South San Francisco,California,US,37.6547,-122.4077,0,0,0,0,0,1,0,0,,0,0,0,0,0,0,0,0,0,0,0,0,0,0,0,0,numismatics
118544814723,Ottawa,Ontario,CA,45.4112,-75.6981,0,1,0,0,0,0,0,0,,0,0,0,0,0,0,0,0,0,0,0,0,0,0,0,0,
118544809654,Toronto,Ontario,CA,43.7064,-79.3986,0,0,0,0,1,0,0,0,,0,0,0,0,0,0,0,0,1,0,0,0,0,0,0,0,
118544797955,Monroe,Michigan,US,41.908,-83.4719,1,0,0,0,0,0,0,0,,0,0,0,0,0,1,0,0,0,0,0,0,0,0,0,0,
118544797883,Toronto,Ontario,CA,43.7064,-79.3986,0,0,0,0,1,0,0,0,,0,0,0,0,0,1,0,0,0,0,0,0,0,0,0,0,
118544792868,Middleborough,Massachusetts,US,41.8932,-70.9112,0,0,0,0,1,0,0,0,,0,0,0,0,0,1,0,0,0,0,0,0,0,0,0,0,
118544792446,Fort McMurray,Alberta,CA,56.7268,-111.381,0,0,0,0,1,0,0,0,,0,0,0,0,0,0,0,0,1,0,0,0,0,0,0,1,
118544772367,Amherst,Nova Scotia,CA,45.8334,-64.1987,0,0,0,0,1,0,0,0,,0,0,0,0,0,0,0,0,0,0,0,0,0,0,0,0,religion and philosophy
118544766998,Nanaimo,British Columbia,CA,49.1664,-123.94,0,0,0,0,0,1,1,0,,0,0,0,0,0,0,0,0,1,0,0,0,0,0,0,0,
118544747758,Toronto,Ontario,CA,43.7064,-79.3986,0,0,0,1,0,0,1,0,,0,0,0,0,0,0,0,0,1,0,1,0,1,0,0,0,
118544692012,Regina,Saskatchewan,CA,50.4501,-104.6178,0,0,0,0,0,0,0,1,,0,0,0,0,0,0,0,0,0,0,0,0,0,0,0,0,
118544668856,London,Ontario,CA,42.9834,-81.233,0,0,0,0,1,0,0,0,,0,0,0,0,0,0,0,0,1,0,0,0,0,0,0,0,
118544659596,Montréal,Quebec,CA,45.5088,-73.5878,0,0,0,0,0,0,1,0,,0,0,0,0,0,0,0,0,0,0,0,0,0,0,1,0,
118544655862,Mississauga,Ontario,CA,43.5789,-79.6583,0,0,0,0,0,1,0,0,,0,0,0,0,0,0,0,0,1,0,0,0,0,0,0,0,
118544652974,Ottawa,Ontario,CA,45.4112,-75.6981,0,0,0,0,0,1,0,0,,0,0,0,0,0,0,1,0,1,0,1,0,0,0,0,0,
118544645600,Oneida,New York,US,43.0926,-75.6513,1,0,0,0,0,0,0,0,,0,0,0,0,0,1,0,0,0,0,0,0,0,0,0,0,
118544641123,Edmonton,Alberta,CA,53.5501,-113.4687,0,0,0,0,0,1,0,0,,0,0,0,0,0,0,0,1,0,0,0,0,0,0,0,0,
118544628201,Carmichael,California,US,38.6171,-121.3283,1,0,0,0,0,0,0,0,,0,0,0,0,0,1,0,0,0,0,0,0,0,0,0,0,
118544618375,Vaughan,Ontario,CA,43.8361,-79.4983,0,0,0,0,0,0,1,0,,0,0,0,0,0,0,0,0,1,0,0,0,0,0,0,1,
118544606554,Moncton,New Brunswick,CA,46.0945,-64.7965,1,0,0,0,0,0,0,0,,0,0,0,0,0,1,0,0,1,0,0,0,0,0,0,0,
118544567119,St. John's,Newfoundland and Labrador,CA,47.5649,-52.7093,0,1,0,0,0,0,0,0,,0,0,0,0,0,0,0,0,0,0,0,0,0,0,0,0,
118544553659,Paramount,California,US,33.8895,-118.1598,1,0,0,0,1,0,0,0,,0,0,0,0,0,1,0,0,0,0,0,0,0,0,0,0,
118544552644,Brampton,Ontario,CA,43.6834,-79.7663,0,0,0,0,1,0,0,0,,0,0,0,0,0,0,0,0,0,0,0,0,0,0,0,0,family history
118544541950,Montréal,Quebec,CA,45.5088,-73.5878,0,0,0,0,1,0,0,0,data scientist,1,0,0,0,0,0,1,1,0,0,0,1,1,1,1,0,
118544538246,Toronto,Ontario,CA,43.7064,-79.3986,0,0,0,0,1,0,0,0,,0,0,0,0,0,1,0,0,0,0,0,0,0,0,0,0,
118544534620,Winnipeg,Manitoba,CA,49.8844,-97.147,0,0,1,0,0,0,0,0,,0,0,0,0,0,0,0,0,0,0,0,1,0,0,0,0,
118544527830,Listowel,Ontario,CA,43.7334,-80.9497,0,0,0,0,1,0,0,0,,0,0,0,0,0,0,0,0,1,0,0,0,0,0,0,0,
118544513040,Troy,Michigan,US,42.6056,-83.1499,1,0,0,0,1,0,0,0,,0,0,0,0,0,1,0,0,0,0,0,0,0,0,0,0,
118544512915,Richmond Hill,Ontario,CA,43.8711,-79.4373,1,0,0,0,0,0,0,0,,0,0,0,0,0,1,0,0,0,0,0,0,0,0,0,0,
118544506656,Toronto,Ontario,CA,43.739,-79.4692,0,0,0,0,0,0,1,0,,0,0,0,0,0,0,0,0,0,0,0,0,0,0,0,0,
118544494303,Toronto,Ontario,CA,43.7064,-79.3986,0,1,0,0,0,0,0,0,,0,0,0,0,0,1,0,0,0,0,0,1,0,0,0,0,
118544470371,Kitchener,Ontario,CA,43.4254,-80.5112,1,0,0,0,1,0,0,0,,0,0,0,0,0,1,0,0,1,0,0,0,0,0,0,0,theology (christian)
118544390618,Vancouver,British Columbia,CA,49.2497,-123.1193,0,0,0,0,1,0,0,0,,0,0,0,0,0,0,0,0,0,0,1,0,0,0,0,0,
118544382811,Toronto,Ontario,CA,43.7064,-79.3986,0,0,0,0,0,0,0,1,,0,0,0,0,0,0,0,0,0,0,0,0,0,0,0,0,
118544322352,Vancouver,British Columbia,CA,49.2497,-123.1193,0,0,1,0,1,1,1,1,,0,0,0,0,0,0,0,0,0,0,0,0,0,0,0,0,
118544277976,Trois-Rivières,Quebec,CA,46.3451,-72.5477,0,0,0,0,0,0,0,1,,0,0,0,0,0,0,0,0,1,0,0,0,0,0,0,0,
118544255178,Regina,Saskatchewan,CA,50.4501,-104.6178,0,0,0,0,1,0,0,0,curious,0,0,0,1,0,1,1,0,1,1,1,0,0,0,1,1,shelters.
118544245360,Edmonton,Alberta,CA,53.5501,-113.4687,0,0,0,0,0,0,1,0,,0,0,0,0,0,0,0,0,0,0,0,0,0,0,0,0,
118544244713,Montréal,Quebec,CA,45.5088,-73.5878,0,0,0,0,0,0,1,0,,0,0,1,0,0,0,0,0,1,0,0,0,0,0,0,0,
118544229655,Halifax,Nova Scotia,CA,44.6427,-63.5769,0,0,0,0,1,0,0,0,,0,0,0,0,0,0,1,0,0,0,0,0,0,0,0,0,
118544227414,Kansas City,Missouri,US,39.0997,-94.5786,1,0,0,0,0,0,0,0,,0,0,0,0,0,1,0,0,1,0,0,0,0,0,0,0,
118544214491,Toronto,Ontario,CA,43.7064,-79.3986,0,0,0,0,0,0,1,0,,0,0,0,0,0,0,0,0,0,0,0,0,1,0,0,1,
118544211910,Toronto,Ontario,CA,43.7064,-79.3986,0,0,0,0,0,0,1,0,,0,0,0,0,0,0,0,0,0,0,0,0,0,0,0,0,
118544211559,North Saanich,British Columbia,CA,48.6663,-123.4193,1,0,0,0,0,0,0,0,,0,0,0,0,0,1,0,0,0,0,0,0,0,0,0,0,
118544203377,Calgary,Alberta,CA,51.0497,-114.1394,1,0,0,0,0,0,0,0,,0,0,0,0,0,0,0,0,0,0,0,0,0,0,0,0,
118544200365,Gatineau,Quebec,CA,45.4772,-75.7016,0,0,0,0,0,0,1,0,,0,0,0,0,0,0,0,0,1,0,0,0,0,0,0,0,
118544198005,Toronto,Ontario,CA,43.7064,-79.3986,0,0,0,0,1,0,0,0,,0,0,0,0,0,0,0,0,1,0,0,0,0,0,1,1,
118544181572,Halifax,Nova Scotia,CA,44.6427,-63.5769,0,0,0,0,1,0,0,0,,0,0,0,0,0,0,0,0,1,0,0,0,0,0,0,0,
118544180089,San José,San José,CR,9.9333,-84.0833,0,0,0,0,0,0,1,0,,0,0,1,0,0,0,0,0,0,0,0,0,0,0,0,0,
118544169711,Toronto,Ontario,CA,43.7064,-79.3986,0,0,0,0,0,0,1,0,,0,0,0,0,0,0,0,0,0,0,0,0,0,0,0,0,
118544162954,Utica,New York,US,43.1009,-75.2327,1,0,0,0,0,0,0,0,,0,0,0,0,0,1,0,0,0,0,0,0,0,0,0,0,
118544161479,Vaughan,Ontario,CA,43.8361,-79.4983,0,0,0,0,0,0,1,0,,0,0,0,0,0,0,0,0,0,0,0,0,0,0,0,0,medicine
118544155226,Norwood,Ontario,CA,44.3834,-77.9828,1,0,0,0,0,0,0,0,,0,0,0,0,0,1,0,0,0,0,0,0,0,0,0,0,
118544152573,Columbus,Georgia,US,32.4638,-84.9484,1,0,0,0,0,0,0,0,,0,0,0,0,0,1,0,0,0,0,0,0,0,0,0,0,
118544151855,Ottawa,Ontario,CA,45.4112,-75.6981,0,0,0,0,1,0,0,0,land surveyor ,0,0,0,0,0,0,1,0,1,0,0,0,0,0,0,0,
118544151544,Montréal,Quebec,CA,45.5005,-73.5684,1,0,0,0,1,0,0,0,,0,0,0,0,0,1,0,0,0,0,0,0,0,0,0,0,
118544151311,Rialto,California,US,34.1064,-117.3703,1,0,0,0,0,0,0,0,,0,0,1,0,0,1,1,0,1,0,0,0,0,0,0,0,
118544145963,Regina,Saskatchewan,CA,50.4501,-104.6178,1,0,0,0,0,0,0,0,,0,0,0,0,0,0,0,0,0,0,0,0,0,0,0,0,
118544145830,Toronto,Ontario,CA,43.7064,-79.3986,0,0,0,0,0,0,0,1,,0,1,0,0,0,0,0,0,0,0,0,0,0,0,0,0,
118544145633,Regina,Saskatchewan,CA,50.4501,-104.6178,1,0,0,0,0,0,0,0,,0,0,0,0,0,0,0,0,0,0,0,0,0,0,0,0,
118544144395,Regina,Saskatchewan,CA,50.4501,-104.6178,1,0,0,0,0,0,0,0,,0,0,0,0,0,1,0,0,0,0,0,0,0,0,0,0,
118544142908,Elmwood Park,Illinois,US,41.9211,-87.8092,1,0,0,0,0,0,0,0,,0,0,0,0,0,1,0,0,0,0,0,0,0,0,0,0,
118544141577,Halifax,Nova Scotia,CA,44.6427,-63.5769,0,0,0,0,1,0,0,0,,0,0,0,0,0,0,0,0,1,0,0,0,0,0,0,0,
118544136154,Winnipeg,Manitoba,CA,49.8844,-97.147,0,0,0,0,1,0,0,0,,0,0,0,0,0,1,0,0,1,0,0,0,0,0,0,0,
118544132288,Toronto,Ontario,CA,43.7064,-79.3986,0,0,0,0,0,0,1,0,,0,0,0,0,0,0,0,0,0,1,1,0,0,0,0,0,
118544130842,Abbotsford,British Columbia,CA,49.058,-122.2526,1,0,0,0,1,0,0,0,,0,0,0,0,0,1,0,0,1,0,0,0,0,0,0,0,
118544122018,Winnipeg,Manitoba,CA,49.8844,-97.147,0,0,0,0,1,0,0,0,,0,0,0,0,0,1,0,0,1,0,0,0,0,0,0,0,
118544115270,Toronto,Ontario,CA,43.7064,-79.3986,0,0,0,0,0,0,1,0,,0,0,0,0,0,0,0,0,1,0,0,0,0,0,0,0,
118544099906,Ventura,California,US,34.3308,-119.3584,1,0,0,0,0,0,0,0,,0,0,0,0,0,1,0,0,0,0,0,0,0,0,0,0,
118544098212,Atlanta,Georgia,US,33.749,-84.388,1,0,0,0,1,0,0,0,,0,0,0,0,0,1,0,0,0,0,0,0,0,0,0,0,
118544095182,Guelph,Ontario,CA,43.5459,-80.256,0,0,0,0,1,0,0,0,,0,0,0,0,0,0,0,0,0,0,0,0,0,0,0,0,
118544094039,Cambridge,Massachusetts,US,42.3751,-71.1056,0,0,0,0,0,0,1,0,,0,0,0,0,0,0,0,0,0,0,0,0,0,0,0,0,
118544091504,Mississauga,Ontario,CA,43.5789,-79.6583,1,0,0,0,0,0,0,0,,0,0,0,0,0,1,0,0,0,0,0,0,0,0,0,0,
118544087956,Vaughan,Ontario,CA,43.8361,-79.4983,1,0,0,0,0,0,0,0,,0,0,0,0,1,0,0,0,0,0,0,0,0,0,0,0,
118544087675,Port Alberni,British Columbia,CA,49.2413,-124.8028,0,0,0,0,0,0,0,0,police officer ,0,0,0,0,0,0,0,0,0,0,0,0,0,0,0,0,interest
118544084666,Essex Junction,Vermont,US,44.4906,-73.111,1,0,0,0,0,0,0,0,,0,0,0,0,0,1,0,0,0,0,0,0,0,0,0,0,
118544077205,Toronto,Ontario,CA,43.7064,-79.3986,0,0,0,0,0,0,1,0,,0,0,1,0,0,0,0,0,0,0,0,0,0,0,0,0,
118544077061,Ottawa,Ontario,CA,45.4112,-75.6981,1,0,0,0,1,0,0,0,,0,0,0,0,0,1,1,0,1,0,0,0,0,0,0,0,
118544072114,Ottawa,Ontario,CA,45.4112,-75.6981,0,0,0,0,0,1,0,0,,0,0,0,0,0,0,0,0,0,0,0,0,0,0,0,0,film study
118544068623,London,Ontario,CA,42.9834,-81.233,0,0,0,0,0,1,0,0,,0,0,0,0,0,0,0,0,1,0,0,0,0,0,0,0,
118544063585,London,Ontario,CA,42.9834,-81.233,0,0,0,0,1,0,1,0,,0,0,0,0,0,0,0,0,0,0,0,0,0,1,1,1,
118544061516,Regina,Saskatchewan,CA,50.4501,-104.6178,1,0,0,0,0,0,0,0,,0,0,0,0,0,0,0,0,0,0,0,0,0,0,0,0,
118544060777,Sault Ste. Marie,Ontario,CA,46.5168,-84.3333,0,0,0,0,0,0,1,0,,0,0,0,0,0,0,0,1,0,0,0,0,0,0,0,0,
118544059733,Boca Del Mar,Florida,US,26.3451,-80.1467,1,0,0,0,0,0,0,0,,0,0,0,0,0,1,0,0,1,0,0,0,0,0,0,0,
118544049112,Milton,Ontario,CA,43.5168,-79.8829,0,0,0,0,0,1,0,0,,0,0,0,0,0,0,0,0,1,0,0,0,0,0,0,0,
118544047459,Brantford,Ontario,CA,43.1334,-80.2664,1,0,0,0,1,1,0,1,,0,0,0,0,0,1,0,0,1,0,0,0,0,0,0,0,
118544044223,Barrie,Ontario,CA,44.4001,-79.6663,0,0,0,0,1,0,0,0,"moving to the area, learning the history ",0,0,0,0,0,0,0,0,1,0,0,0,0,0,0,0,
118544034861,Dorval,Quebec,CA,45.4473,-73.7533,0,0,0,0,1,0,0,0,,0,0,0,0,0,0,0,0,0,0,0,0,0,0,0,0,
118544031943,Brunswick,Maine,US,43.9145,-69.9653,1,0,0,0,1,0,0,0,,0,0,0,1,0,1,1,0,1,0,1,0,0,0,0,0,
118544030862,Nepean,Ontario,CA,45.3362,-75.7225,0,0,0,0,1,0,0,0,,0,0,0,0,0,1,0,0,1,0,0,0,0,0,0,0,
118544026914,Helsinki,Uusimaa,FI,60.1695,24.9354,0,0,0,0,1,0,0,0,,0,0,0,0,0,0,0,0,0,0,0,0,0,0,0,0,arts & crafts
118544024323,Calgary,Alberta,CA,51.0501,-114.0853,0,0,0,0,0,1,0,0,,0,0,0,0,0,0,0,0,0,0,0,0,0,0,1,0,
118544013880,Fredericton,New Brunswick,CA,45.9454,-66.6656,1,0,0,0,0,0,0,0,,0,0,0,0,0,1,0,0,1,0,0,0,0,0,0,0,
118544012973,Montréal,Quebec,CA,45.5088,-73.5878,1,0,0,0,0,0,0,0,,0,0,0,0,0,1,0,0,0,0,0,0,0,0,0,0,
118544009323,Kolkata,West Bengal,IN,22.5626,88.363,0,0,0,0,0,0,0,0,researcher,0,0,0,0,0,0,0,0,0,0,0,0,0,0,0,0,chemistry
118544008748,Powell River,British Columbia,CA,49.8328,-124.5237,0,0,0,0,0,0,1,0,,0,0,0,0,0,0,0,0,0,1,0,0,0,0,0,0,
118543983450,Sarnia,Ontario,CA,42.9787,-82.4041,1,0,0,0,0,0,0,0,,0,0,0,0,0,1,1,0,1,0,0,0,0,0,0,0,
118543983302,Kitchener,Ontario,CA,43.4254,-80.5112,0,0,0,0,1,0,0,0,,0,1,0,0,0,0,0,0,0,0,0,0,0,0,0,0,
118543967617,Montréal,Quebec,CA,45.5088,-73.5878,0,0,0,0,1,0,0,0,,0,0,0,0,0,1,0,0,0,0,0,0,0,0,0,0,
118543961759,Halifax,Nova Scotia,CA,44.6427,-63.5769,0,0,0,0,1,0,0,0,,0,0,0,0,0,0,1,1,1,0,0,0,0,0,0,0,
118543956837,Toronto,Ontario,CA,43.7064,-79.3986,1,0,0,0,0,0,0,0,,0,0,0,0,0,1,0,0,1,0,0,0,0,0,0,0,
118543955182,Sarnia,Ontario,CA,42.9787,-82.4041,1,0,0,0,0,0,0,0,,0,0,0,0,0,1,1,0,1,1,0,0,0,0,0,0,
118543952869,Saint John,New Brunswick,CA,45.2708,-66.0562,1,0,0,0,0,0,0,0,,0,0,0,0,0,1,0,0,0,0,0,0,0,0,0,0,
118543937081,Granby,Quebec,CA,45.4001,-72.7324,1,0,0,0,0,0,0,0,,0,0,0,0,0,0,0,0,1,0,0,0,0,0,0,0,
118543903202,Regina,Saskatchewan,CA,50.4501,-104.6178,1,0,0,0,0,0,0,0,,0,0,0,0,0,0,0,0,0,0,0,0,0,0,0,0,
118543884815,Huntsville,Ontario,CA,45.3334,-79.2163,0,0,0,0,1,0,0,0,,0,0,0,0,0,0,1,0,1,1,1,0,1,0,0,0,
118543883542,Vancouver,British Columbia,CA,49.2497,-123.1193,0,0,0,1,0,0,0,0,,0,0,0,0,0,0,0,0,0,1,0,0,0,0,0,0,
118543880333,Vancouver,British Columbia,CA,49.2497,-123.1193,0,0,0,0,1,0,0,0,,0,0,0,0,0,0,0,0,1,0,0,0,0,0,0,0,
118543874812,Winnipeg,Manitoba,CA,49.8844,-97.147,0,0,0,0,1,0,0,0,,0,0,0,0,0,0,0,0,0,0,0,0,1,0,0,0,
118543863783,Ottawa,Ontario,CA,45.4112,-75.6981,0,0,0,0,1,0,0,0,,0,0,0,0,0,0,0,0,1,0,0,0,0,0,0,0,
118543859580,Negaunee,Michigan,US,46.4991,-87.6118,0,0,0,0,0,0,1,0,,0,0,0,0,0,0,0,0,0,0,0,0,0,0,0,0,
118543855530,Hendersonville,North Carolina,US,35.3187,-82.4609,1,0,0,0,1,0,0,0,,0,1,0,0,0,1,0,0,0,0,0,0,0,0,0,0,
118543850579,Willowdale,Ontario,CA,43.7667,-79.3991,0,0,0,0,1,0,0,0,,0,0,0,0,0,0,0,0,1,0,0,0,0,0,0,0,
118543836043,Airdrie,Alberta,CA,51.3001,-114.0353,0,0,0,0,0,0,1,0,,0,0,0,0,0,0,0,0,1,0,0,0,0,0,0,0,
118543829276,Meadville,Pennsylvania,US,41.6414,-80.1514,1,0,0,0,0,0,0,0,,0,0,0,0,0,1,0,0,0,0,0,0,0,0,0,0,
118543823243,Towson,Maryland,US,39.4015,-76.6019,1,0,0,0,1,0,0,0,,0,0,0,0,0,1,0,0,1,0,0,0,0,0,0,0,
118543819741,Saint John,New Brunswick,CA,45.2708,-66.0562,0,0,1,0,0,0,0,0,,0,0,0,0,0,0,0,0,1,0,0,0,0,0,0,0,
118543818008,Fergus,Ontario,CA,43.706,-80.3776,0,0,0,0,1,0,0,0,,0,0,0,0,0,1,1,0,0,0,0,0,0,0,0,0,
118543813032,North Bay,Ontario,CA,46.3168,-79.4663,1,0,0,0,1,0,0,0,,0,0,0,0,0,1,1,0,1,0,0,0,0,0,0,0,
118543812958,Kingston,Ontario,CA,44.2298,-76.481,0,0,0,0,0,0,0,0,independant researcher & author,0,0,0,0,0,0,0,0,0,0,0,0,0,0,0,0,architecture
118543812511,Halifax,Nova Scotia,CA,44.6427,-63.5769,1,0,0,0,1,0,0,0,,0,0,0,0,0,1,0,0,1,0,0,0,0,0,0,0,
118543807055,Toronto,Ontario,CA,43.7064,-79.3986,0,0,0,0,1,0,0,0,,0,0,0,0,0,1,0,0,1,0,0,0,0,0,0,0,
118543806789,Hamilton,Ontario,CA,43.2501,-79.8496,1,0,0,0,1,0,0,0,,0,0,0,0,0,1,0,0,1,0,0,0,0,0,0,0,
118543805899,St. John's,Newfoundland and Labrador,CA,47.5649,-52.7093,1,0,0,0,0,0,0,0,,0,0,0,0,0,1,0,0,1,0,0,0,0,0,0,0,
118543796107,Thorold,Ontario,CA,43.1168,-79.1996,0,0,0,0,0,0,1,0,,0,0,0,0,0,0,0,0,0,0,0,0,0,0,0,0,
118543791428,Toronto,Ontario,CA,43.7064,-79.3986,0,0,0,0,0,0,1,0,,0,0,1,0,0,0,0,0,0,0,0,0,0,0,0,0,
118543789303,Vancouver,British Columbia,CA,49.2497,-123.1193,1,0,0,0,0,0,0,0,,0,0,0,0,0,1,0,0,0,0,0,0,0,0,0,0,
118543771209,Glace Bay,Nova Scotia,CA,46.197,-59.957,0,1,0,0,0,0,0,0,,0,0,0,0,0,0,0,0,0,0,0,0,0,0,0,0,
118543769600,Duluth,Minnesota,US,46.8147,-92.1998,1,0,0,0,0,0,0,0,,0,0,0,0,0,1,0,0,0,0,0,0,0,0,0,0,
118543766912,Saint-Jean-sur-Richelieu,Quebec,CA,45.3071,-73.2626,0,0,0,0,0,0,1,0,,0,0,0,0,0,0,0,0,0,0,0,0,0,0,0,1,
118543760742,Regina,Saskatchewan,CA,50.4501,-104.6178,1,0,0,0,0,0,0,0,,0,0,0,0,0,0,0,0,0,0,0,0,0,0,0,0,
118543755699,Denver,Colorado,US,39.7392,-104.9847,0,0,0,0,1,0,0,0,,0,0,0,0,0,1,0,0,1,0,0,0,0,0,0,0,
118543754710,Welland,Ontario,CA,42.9834,-79.2496,1,0,0,0,1,0,0,0,,0,0,0,0,0,1,1,0,1,0,0,0,0,0,0,0,
118543750164,Toronto,Ontario,CA,43.7064,-79.3986,0,0,0,0,1,0,0,0,,0,1,0,0,0,1,0,0,1,0,0,0,0,0,0,0,
118543743466,Fredericton,New Brunswick,CA,45.9454,-66.6656,1,0,0,0,0,0,0,0,,0,0,0,0,0,1,0,0,0,0,0,0,0,0,0,0,
118543741406,London,Ontario,CA,42.9834,-81.233,1,0,0,0,0,0,0,0,,0,0,0,0,0,0,0,0,0,0,1,0,0,0,0,0,
118543733548,Calgary,Alberta,CA,51.0501,-114.0853,0,0,0,0,1,0,0,0,,0,0,0,0,0,1,0,0,0,0,0,0,0,0,0,0,
118543732913,Mississauga,Ontario,CA,43.5789,-79.6583,1,0,0,0,0,0,0,0,,0,0,0,0,0,1,0,0,0,0,0,0,0,0,0,0,
118543732574,Carlsbad,California,US,33.1602,-117.325,1,0,0,0,0,0,0,0,,0,0,0,0,0,1,0,0,0,0,0,0,0,0,0,0,
118543710491,West Covina,California,US,34.0653,-117.8978,1,0,0,0,0,0,0,0,,0,0,0,0,0,1,0,0,0,0,0,0,0,0,0,0,
118543708778,Portland,Oregon,US,45.5234,-122.6762,1,0,0,0,1,0,0,0,,0,0,0,0,0,1,0,0,0,0,0,0,0,0,0,0,
118543702021,Toronto,Ontario,CA,43.7064,-79.3986,1,0,0,0,1,0,0,0,,0,0,0,0,0,0,1,0,0,0,0,0,0,0,0,0,
118543691142,Montréal,Quebec,CA,45.5088,-73.5878,0,0,0,0,0,0,1,0,,0,0,0,0,0,0,0,0,1,0,0,0,0,0,0,0,
118543690722,Kamloops,British Columbia,CA,50.6665,-120.3192,1,0,0,0,0,0,0,0,,0,0,0,0,0,1,0,0,0,0,0,0,0,0,0,0,
118543684165,Valparaiso,Indiana,US,41.4731,-87.0611,1,0,0,0,0,0,0,0,,0,0,0,0,0,1,0,0,1,0,0,0,0,0,0,0,
118543680865,Halifax,Nova Scotia,CA,44.662,-63.6017,0,0,0,0,1,0,0,0,,0,0,0,0,0,1,0,0,0,0,0,0,0,0,0,0,
118543674992,Montréal,Quebec,CA,45.5088,-73.5878,0,0,0,0,1,0,0,0,,0,0,0,0,0,0,0,0,1,0,1,0,0,0,0,0,
118543674198,Toronto,Ontario,CA,43.7064,-79.3986,1,0,0,0,0,0,0,0,,1,0,0,0,0,0,0,0,0,0,0,0,0,0,0,0,
118543649414,Duncan,British Columbia,CA,48.7829,-123.7027,1,0,0,0,0,0,0,0,,0,0,0,0,0,1,0,0,0,0,0,0,0,0,0,0,
118543641778,New York City,New York,US,40.7143,-74.006,0,0,0,0,0,0,0,1,,0,0,0,0,0,1,0,0,0,0,0,0,0,0,0,0,
118543622164,Chicago,Illinois,US,41.85,-87.65,1,0,0,0,0,0,0,0,family history ,0,0,0,0,0,1,0,0,0,0,0,0,0,0,0,0,
118543618640,Toronto,Ontario,CA,43.7064,-79.3986,0,0,0,0,0,1,0,0,,0,0,0,0,0,0,0,0,1,0,0,0,0,0,0,0,
118543612026,London,Ontario,CA,42.9834,-81.233,1,0,0,0,1,0,0,0,,0,0,0,0,0,1,0,0,0,0,0,0,0,0,0,0,
118543605707,Ottawa,Ontario,CA,45.4112,-75.6981,1,0,0,0,0,0,0,0,,0,0,0,0,0,1,0,0,0,0,0,0,0,0,0,0,
118543600457,Elko New Market,Minnesota,US,44.5647,-93.3269,1,0,0,0,0,0,0,0,,0,0,0,0,0,1,0,0,0,0,0,0,0,0,0,0,
118543598381,Halifax,Nova Scotia,CA,44.662,-63.6017,0,0,0,0,1,0,0,0,,0,0,0,0,0,1,0,0,0,0,0,0,0,0,0,0,
118543595850,Kitchener,Ontario,CA,43.4254,-80.5112,0,0,0,0,1,0,0,0,,0,0,0,0,0,1,0,0,0,0,0,0,0,0,0,0,
118543592856,Brampton,Ontario,CA,43.6834,-79.7663,0,0,0,0,1,0,0,0,,0,0,0,0,0,1,0,0,1,0,0,0,0,0,0,0,
118543587597,Tallaght,Leinster,IE,53.2859,-6.3734,0,0,0,0,0,0,0,0,read sabout this in novel  mrs robinsons disgrace,0,0,0,0,0,0,0,0,0,0,0,0,0,0,0,0,
118543576440,Guelph,Ontario,CA,43.5459,-80.256,0,0,0,0,0,0,1,0,,1,0,0,0,0,0,0,0,0,0,0,0,0,0,0,0,
118543547817,Kingston,Ontario,CA,44.2298,-76.481,1,0,0,0,0,0,0,0,,0,0,0,0,0,1,0,0,0,0,0,0,0,0,0,0,
118543538077,Vancouver,British Columbia,CA,49.2497,-123.1193,1,0,0,0,0,0,0,0,,0,0,0,0,0,1,0,0,0,0,0,0,0,0,0,0,
118543537518,Kelowna,British Columbia,CA,49.8831,-119.4857,0,0,0,0,1,0,0,0,,0,0,0,0,0,0,0,0,1,0,0,0,0,0,0,0,
118543532108,Ashburn,Virginia,US,39.0437,-77.4875,0,0,0,0,0,1,0,0,,0,0,0,0,0,0,0,0,1,1,1,0,1,0,0,0,
118543513290,Vancouver,British Columbia,CA,49.2497,-123.1193,1,0,0,0,1,1,0,0,,0,0,0,0,0,1,0,0,1,0,0,0,0,0,0,0,
118543480038,Ottawa,Ontario,CA,45.4112,-75.6981,1,0,0,0,0,0,0,0,,0,0,0,0,0,1,0,0,0,0,1,0,0,0,0,0,
118543476868,Toronto,Ontario,CA,43.7064,-79.3986,0,0,0,0,0,0,1,0,,0,0,0,0,0,0,0,0,0,0,0,0,0,0,0,0,sociology
118543467732,Nepean,Ontario,CA,45.3362,-75.7225,0,0,0,0,1,0,0,0,,0,0,0,0,0,0,0,0,1,0,0,0,0,0,0,0,
118543452920,Toronto,Ontario,CA,43.7064,-79.3986,0,0,0,0,1,1,0,0,,0,0,0,0,0,0,0,0,1,0,0,0,0,0,0,0,
118543451700,St. John's,Newfoundland and Labrador,CA,47.5649,-52.7093,1,0,0,0,0,0,0,0,,0,0,1,0,1,1,0,0,1,0,0,0,1,0,0,0,
118543444824,Toronto,Ontario,CA,43.7064,-79.3986,1,0,0,0,1,1,0,0,,0,0,0,0,0,0,0,0,1,0,0,0,0,0,0,0,
118543438623,South Huron,Ontario,CA,43.3168,-81.5165,1,0,0,0,0,0,0,0,,0,0,0,0,0,1,0,0,1,0,0,0,0,0,0,0,
118543430329,Toronto,Ontario,CA,43.7064,-79.3986,1,0,0,0,1,1,0,0,,0,0,0,0,0,0,0,0,1,0,0,0,0,0,0,0,
118543427787,South Huron,Ontario,CA,43.3168,-81.5165,1,0,0,0,0,0,0,0,,0,0,0,0,0,1,0,0,1,0,0,0,0,0,0,0,
118543424553,Olds,Alberta,CA,51.7834,-114.102,0,0,0,0,0,1,0,0,,0,0,0,0,0,0,0,0,1,0,0,0,0,0,0,0,
118543423879,Summerside,Prince Edward Island,CA,46.3912,-63.7887,0,0,0,0,0,1,0,0,,0,0,0,0,0,0,0,0,1,1,0,0,0,0,0,0,
118543404795,York Haven Anchorage,Virginia,US,37.1443,-76.3833,1,0,0,0,0,0,0,0,,0,0,0,0,0,1,0,0,1,0,0,0,0,0,0,0,
118543402353,Dartmouth,Nova Scotia,CA,44.6713,-63.5772,0,0,0,0,1,0,0,0,,0,0,0,0,0,0,1,0,0,0,0,0,0,0,0,0,
118543398154,St. Catharines,Ontario,CA,43.1713,-79.2427,1,0,0,0,0,0,0,0,,0,0,0,0,0,0,0,0,0,0,0,0,0,0,0,0,
118543380533,Lethbridge,Alberta,CA,49.7,-112.8186,1,0,0,0,1,0,0,1,,0,0,0,0,0,1,0,0,0,0,0,0,0,0,0,0,
118543371203,Edmonton,Alberta,CA,53.5501,-113.4687,1,0,0,0,0,0,0,0,,0,0,0,0,0,1,0,0,0,0,0,0,0,0,0,0,
118543365699,Montréal,Quebec,CA,45.5088,-73.5878,0,0,0,0,0,0,0,0,professor,0,0,0,0,0,0,0,0,1,0,1,0,0,0,1,0,
118543352425,Niagara Falls,Ontario,CA,43.1001,-79.0663,0,0,0,0,1,0,0,1,,0,0,0,0,0,0,0,0,1,0,0,0,0,0,0,0,
118543351644,Toronto,Ontario,CA,43.7064,-79.3986,0,0,0,0,0,0,1,0,,0,0,0,0,1,0,0,0,0,1,1,0,0,0,0,0,
